[{"name":"Київ","lat":50.4547,"lng":30.5238,"pop":2797553},{"name":"Харків","lat":49.9818,"lng":36.2548,"pop":1433886},{"name":"Одеса","lat":46.4857,"lng":30.7438,"pop":1015826},{"name":"Дніпро","lat":48.4666,"lng":35.0407,"pop":968502},{"name":"Донецьк","lat":48.023,"lng":37.8022,"pop":901645},{"name":"Львів","lat":49.8383,"lng":24.0232,"pop":717273},{"name":"Запоріжжя","lat":47.8517,"lng":35.1171,"pop":710052},{"name":"Кривий Ріг","lat":47.9057,"lng":33.394,"pop":603904},{"name":"Севастополь","lat":44.608,"lng":33.5213,"pop":547820},{"name":"Миколаїв","lat":46.9763,"lng":31.993,"pop":470011},{"name":"Луганськ","lat":48.5681,"lng":39.3055,"pop":397677},{"name":"Вінниця","lat":49.2322,"lng":28.4687,"pop":369839},{"name":"Макіївка","lat":48.0478,"lng":37.9258,"pop":338968},{"name":"Сімферополь","lat":44.9572,"lng":34.1108,"pop":336460},{"name":"Чернігів","lat":51.5054,"lng":31.2866,"pop":285234},{"name":"Херсон","lat":46.6369,"lng":32.6146,"pop":283649},{"name":"Полтава","lat":49.5892,"lng":34.5537,"pop":283402},{"name":"Хмельницький","lat":49.4183,"lng":26.9794,"pop":274582},{"name":"Черкаси","lat":49.4445,"lng":32.0574,"pop":272651},{"name":"Чернівці","lat":48.2904,"lng":25.9324,"pop":265471},{"name":"Житомир","lat":50.2623,"lng":28.6791,"pop":261624},{"name":"Суми","lat":50.9174,"lng":34.7991,"pop":259660},{"name":"Рівне","lat":50.6204,"lng":26.237,"pop":245289},{"name":"Горлівка","lat":48.3358,"lng":38.0532,"pop":239828},{"name":"Івано-Франківськ","lat":48.9231,"lng":24.7125,"pop":238196},{"name":"Кам'янське","lat":48.5172,"lng":34.6062,"pop":226845},{"name":"Тернопіль","lat":49.554,"lng":25.5907,"pop":225238},{"name":"Кропивницький","lat":48.5083,"lng":32.2662,"pop":219676},{"name":"Кременчук","lat":49.0625,"lng":33.4048,"pop":217710},{"name":"Луцьк","lat":50.7578,"lng":25.3502,"pop":215986},{"name":"Біла Церква","lat":49.8004,"lng":30.1285,"pop":207273},{"name":"Керч","lat":45.3567,"lng":36.4754,"pop":148932},{"name":"Мелітополь","lat":46.8473,"lng":35.382,"pop":148851},{"name":"Краматорськ","lat":48.7305,"lng":37.5879,"pop":147145},{"name":"Маріуполь","lat":47.0951,"lng":37.5413,"pop":120000},{"name":"Ужгород","lat":48.6242,"lng":22.2947,"pop":115449},{"name":"Бровари","lat":50.5181,"lng":30.8067,"pop":109806},{"name":"Бердянськ","lat":46.7558,"lng":36.7882,"pop":106311},{"name":"Євпаторія","lat":45.2009,"lng":33.3665,"pop":106202},{"name":"Алчевськ","lat":48.4689,"lng":38.8167,"pop":106062},{"name":"Нікополь","lat":47.5683,"lng":34.3913,"pop":105160},{"name":"Слов'янськ","lat":48.8497,"lng":37.5974,"pop":105141},{"name":"Павлоград","lat":48.5321,"lng":35.8688,"pop":101430},{"name":"Умань","lat":48.7501,"lng":30.2194,"pop":100135},{"name":"Сєвєродонецьк","lat":48.9463,"lng":38.4862,"pop":99067},{"name":"Кам’янець-Подільський","lat":48.6788,"lng":26.5852,"pop":97908},{"name":"Лисичанськ","lat":48.9042,"lng":38.4409,"pop":93340},{"name":"Мукачево","lat":48.4425,"lng":22.718,"pop":85569},{"name":"Конотоп","lat":51.2403,"lng":33.2026,"pop":84787},{"name":"Бахмут","lat":48.5944,"lng":37.9998,"pop":80500},{"name":"Хрустальний","lat":48.1395,"lng":38.9372,"pop":79533},{"name":"Ялта","lat":44.5022,"lng":34.1662,"pop":77003},{"name":"Єнакієве","lat":48.2386,"lng":38.204,"pop":76673},{"name":"Олександрія","lat":48.6747,"lng":33.1176,"pop":76097},{"name":"Дрогобич","lat":49.352,"lng":23.5112,"pop":73682},{"name":"Стаханов","lat":48.5682,"lng":38.6435,"pop":73248},{"name":"Шостка","lat":51.863,"lng":33.4698,"pop":73197},{"name":"Бердичів","lat":49.8942,"lng":28.5824,"pop":73046},{"name":"Шахтарськ","lat":48.0566,"lng":38.4383,"pop":71700},{"name":"Самар","lat":48.6289,"lng":35.2589,"pop":70550},{"name":"Ізмаїл","lat":45.3506,"lng":28.8375,"pop":69932},{"name":"Феодосія","lat":45.032,"lng":35.3815,"pop":68562},{"name":"Ковель","lat":51.2155,"lng":24.7008,"pop":67575},{"name":"Костянтинівка","lat":48.5273,"lng":37.7059,"pop":67350},{"name":"Ніжин","lat":51.0477,"lng":31.8884,"pop":66983},{"name":"Сміла","lat":49.233,"lng":31.8843,"pop":66475},{"name":"Ірпінь","lat":50.5217,"lng":30.2506,"pop":65167},{"name":"Калуш","lat":49.024,"lng":24.3721,"pop":65088},{"name":"Червоноград","lat":50.394,"lng":24.2394,"pop":64297},{"name":"Бориспіль","lat":50.3527,"lng":30.955,"pop":64117},{"name":"Свердловськ","lat":48.0896,"lng":39.6524,"pop":62691},{"name":"Первомайськ","lat":48.0448,"lng":30.8478,"pop":62426},{"name":"Inhulets","lat":47.7301,"lng":33.2519,"pop":62173},{"name":"Коростень","lat":50.9512,"lng":28.6386,"pop":61496},{"name":"Стрий","lat":49.261,"lng":23.8484,"pop":61404},{"name":"Коломия","lat":48.525,"lng":25.0371,"pop":60821},{"name":"Красноармійськ","lat":48.2824,"lng":37.1777,"pop":60127},{"name":"Чорноморськ","lat":46.2991,"lng":30.6553,"pop":57983},{"name":"Khartsyz’k","lat":48.0424,"lng":38.1473,"pop":56182},{"name":"Звягель","lat":50.5914,"lng":27.6088,"pop":55925},{"name":"Сніжне","lat":48.0261,"lng":38.7722,"pop":55587},{"name":"Рубіжне","lat":49.0061,"lng":38.3812,"pop":55247},{"name":"Лозова","lat":48.8894,"lng":36.3175,"pop":54026},{"name":"Дружківка","lat":48.619,"lng":37.527,"pop":53977},{"name":"Часткове","lat":48.0388,"lng":38.5969,"pop":53462},{"name":"Енергодар","lat":47.4905,"lng":34.662,"pop":52887},{"name":"Прилуки","lat":50.5953,"lng":32.3838,"pop":52553},{"name":"Antratsyt","lat":48.115,"lng":39.0913,"pop":52150},{"name":"Горішні Плавні","lat":49.0084,"lng":33.6293,"pop":49854},{"name":"Нововолинськ","lat":50.7295,"lng":24.1598,"pop":49772},{"name":"Краснодон","lat":48.2923,"lng":39.7392,"pop":49352},{"name":"Білгород-Дністровський","lat":46.1948,"lng":30.3483,"pop":47727},{"name":"Охтирка","lat":50.3104,"lng":34.8988,"pop":47216},{"name":"Мирноград","lat":48.3099,"lng":37.2651,"pop":46098},{"name":"Izium","lat":49.207,"lng":37.2768,"pop":45884},{"name":"Ровеньки","lat":48.0833,"lng":39.3776,"pop":45514},{"name":"Марганець","lat":47.6309,"lng":34.6245,"pop":44980},{"name":"Брянка","lat":48.511,"lng":38.6722,"pop":44760},{"name":"Лубни","lat":50.0141,"lng":32.9997,"pop":44595},{"name":"Нова Каховка","lat":46.7597,"lng":33.3559,"pop":44427},{"name":"Фастів","lat":50.0767,"lng":29.9177,"pop":44014},{"name":"Світловодськ","lat":49.0629,"lng":33.2458,"pop":43130},{"name":"Вишневе","lat":50.3891,"lng":30.3705,"pop":42983},{"name":"Буча","lat":50.5434,"lng":30.212,"pop":42279},{"name":"Жовті Води","lat":48.3452,"lng":33.4974,"pop":42052},{"name":"Вараш","lat":51.3404,"lng":25.8555,"pop":42000},{"name":"Джанкой","lat":45.7131,"lng":34.3927,"pop":41731},{"name":"Шепетівка","lat":50.1812,"lng":27.0652,"pop":40802},{"name":"Миргород","lat":49.9646,"lng":33.6086,"pop":39575},{"name":"Подільськ","lat":47.7499,"lng":29.5307,"pop":39220},{"name":"Південноукраїнськ","lat":47.8288,"lng":31.1751,"pop":38560},{"name":"Ромни","lat":50.751,"lng":33.4747,"pop":38305},{"name":"Володимир","lat":50.8503,"lng":24.3212,"pop":37910},{"name":"Ясинувата","lat":48.1298,"lng":37.8594,"pop":37600},{"name":"Покров","lat":47.6536,"lng":34.1149,"pop":37493},{"name":"Дубно","lat":50.4075,"lng":25.7624,"pop":37257},{"name":"Васильків","lat":50.1869,"lng":30.3135,"pop":37068},{"name":"Чугуїв","lat":49.8354,"lng":36.6865,"pop":36519},{"name":"Нетішин","lat":50.3286,"lng":26.6487,"pop":36492},{"name":"Первомайськ","lat":48.6283,"lng":38.562,"pop":36091},{"name":"Каховка","lat":46.816,"lng":33.4786,"pop":35983},{"name":"Авдіївка","lat":48.1402,"lng":37.7501,"pop":35826},{"name":"Славута","lat":50.2961,"lng":26.8661,"pop":35068},{"name":"Жмеринка","lat":49.0352,"lng":28.114,"pop":34498},{"name":"Боярка","lat":50.3191,"lng":30.2973,"pop":34394},{"name":"Старокостянтинів","lat":49.7552,"lng":27.2123,"pop":34232},{"name":"Самбір","lat":49.5162,"lng":23.2013,"pop":34152},{"name":"Вознесенськ","lat":47.5622,"lng":31.336,"pop":33442},{"name":"Південне","lat":46.6247,"lng":31.1018,"pop":32677},{"name":"Борислав","lat":49.29,"lng":23.4289,"pop":32473},{"name":"Глухів","lat":51.6782,"lng":33.9162,"pop":31789},{"name":"Обухів","lat":50.1069,"lng":30.6185,"pop":31557},{"name":"Новояворівськ","lat":49.9302,"lng":23.5736,"pop":31366},{"name":"Торецьк","lat":48.3948,"lng":37.8478,"pop":30914},{"name":"Костопіль","lat":50.8773,"lng":26.448,"pop":30838},{"name":"Яни Капу","lat":45.9555,"lng":33.7926,"pop":30700},{"name":"Могилів-Подільський","lat":48.4428,"lng":27.7997,"pop":30589},{"name":"Синельникове","lat":48.3236,"lng":35.5261,"pop":30556},{"name":"Biliychi","lat":50.4654,"lng":30.3465,"pop":30000},{"name":"Алушта","lat":44.6773,"lng":34.4097,"pop":29586},{"name":"Токмак","lat":47.2555,"lng":35.7084,"pop":29573},{"name":"Сарни","lat":51.339,"lng":26.6069,"pop":28865},{"name":"Златопіль","lat":49.3765,"lng":36.2185,"pop":28510},{"name":"Хуст","lat":48.1719,"lng":23.2979,"pop":28424},{"name":"Чортків","lat":49.017,"lng":25.7981,"pop":28393},{"name":"Саки","lat":45.1342,"lng":33.6,"pop":28322},{"name":"Новий Розділ","lat":49.4714,"lng":24.1335,"pop":28304},{"name":"Трускавець","lat":49.2807,"lng":23.5037,"pop":28287},{"name":"Добропілля","lat":48.4615,"lng":37.0852,"pop":28170},{"name":"Золотоноша","lat":49.6693,"lng":32.0364,"pop":27818},{"name":"Хмільник","lat":49.5581,"lng":27.9568,"pop":27707},{"name":"Шахтарське","lat":48.3479,"lng":36.3964,"pop":27573},{"name":"Бахчисарай","lat":44.7552,"lng":33.8578,"pop":27448},{"name":"Кіровське","lat":48.1492,"lng":38.3594,"pop":27370},{"name":"Куп’янськ","lat":49.71,"lng":37.6158,"pop":27169},{"name":"Тернівка","lat":48.5266,"lng":36.0705,"pop":26961},{"name":"Kirovs’k","lat":48.6375,"lng":38.6428,"pop":26654},{"name":"Балаклія","lat":49.456,"lng":36.8443,"pop":26334},{"name":"Переяслав","lat":50.0674,"lng":31.4497,"pop":26273},{"name":"Софіївська Борщагівка","lat":50.4093,"lng":30.3591,"pop":25882},{"name":"Гайсин","lat":48.8129,"lng":29.3792,"pop":25735},{"name":"Виноградів","lat":48.1413,"lng":23.0362,"pop":25317},{"name":"Малин","lat":50.7676,"lng":29.2422,"pop":25172},{"name":"Перевальськ","lat":48.4378,"lng":38.8438,"pop":24817},{"name":"Олешки","lat":46.6255,"lng":32.7243,"pop":24639},{"name":"Здолбунів","lat":50.5221,"lng":26.2482,"pop":24501},{"name":"Славутич","lat":51.5225,"lng":30.7181,"pop":24464},{"name":"Армянськ","lat":46.1092,"lng":33.6921,"pop":24442},{"name":"Дебальцеве","lat":48.338,"lng":38.4024,"pop":24209},{"name":"Коростишів","lat":50.3169,"lng":29.0577,"pop":24129},{"name":"Кролевець","lat":51.5478,"lng":33.3847,"pop":24115},{"name":"Лебедин","lat":50.5852,"lng":34.4849,"pop":23892},{"name":"Pisochyn","lat":49.9564,"lng":36.1084,"pop":23509},{"name":"Канів","lat":49.7519,"lng":31.47,"pop":23503},{"name":"Гадяч","lat":50.3691,"lng":33.997,"pop":23480},{"name":"Берегове","lat":48.2051,"lng":22.6445,"pop":23325},{"name":"Козятин","lat":49.7164,"lng":28.8386,"pop":23241},{"name":"Броди","lat":50.0885,"lng":25.1461,"pop":23134},{"name":"Докучаєвськ","lat":47.7522,"lng":37.6776,"pop":22835},{"name":"Золочів","lat":49.8074,"lng":24.9038,"pop":22608},{"name":"Надвірна","lat":48.6366,"lng":24.5714,"pop":22504},{"name":"Ладижин","lat":48.6844,"lng":29.2364,"pop":22459},{"name":"Молодогвардійськ","lat":48.3451,"lng":39.6524,"pop":22449},{"name":"Знам’янка","lat":48.7207,"lng":32.6582,"pop":22444},{"name":"Вишгород","lat":50.5848,"lng":30.4898,"pop":22080},{"name":"Вільногірськ","lat":48.4842,"lng":34.0171,"pop":22079},{"name":"Selydove","lat":48.1445,"lng":37.3006,"pop":21521},{"name":"Берестин","lat":49.3751,"lng":35.4549,"pop":21426},{"name":"Bilohorodka","lat":50.3897,"lng":30.2253,"pop":21369},{"name":"Мерефа","lat":49.8186,"lng":36.0565,"pop":21202},{"name":"Волноваха","lat":47.6016,"lng":37.4971,"pop":21166},{"name":"Кременець","lat":50.0986,"lng":25.7279,"pop":21063},{"name":"Полонне","lat":50.1194,"lng":27.5086,"pop":20785},{"name":"Kurakhovo","lat":47.9852,"lng":37.2821,"pop":20700},{"name":"Долина","lat":48.9716,"lng":23.9656,"pop":20417},{"name":"Sukhodil’s’k","lat":48.3502,"lng":39.727,"pop":20390},{"name":"Сокаль","lat":50.4745,"lng":24.2809,"pop":20373},{"name":"Стебник","lat":49.301,"lng":23.552,"pop":20200},{"name":"Лиман","lat":48.9862,"lng":37.8031,"pop":20066},{"name":"Liubotyn","lat":49.9469,"lng":35.9291,"pop":20001},{"name":"Саперна Слобідка","lat":50.4008,"lng":30.5349,"pop":20000},{"name":"Ківшарівка","lat":49.6303,"lng":37.6775,"pop":19738},{"name":"Тростянець","lat":50.4848,"lng":34.9657,"pop":19544},{"name":"Кілія","lat":45.4445,"lng":29.264,"pop":19540},{"name":"Генічеськ","lat":46.1682,"lng":34.8086,"pop":19501},{"name":"Popasna","lat":48.6333,"lng":38.378,"pop":19199},{"name":"Підгородне","lat":48.5742,"lng":35.097,"pop":19138},{"name":"Вінники","lat":49.8167,"lng":24.1442,"pop":19037},{"name":"Яготин","lat":50.2797,"lng":31.7625,"pop":18995},{"name":"Красилів","lat":49.6538,"lng":26.9721,"pop":18868},{"name":"Балаклава","lat":44.5112,"lng":33.5994,"pop":18649},{"name":"Рені","lat":45.4542,"lng":28.2773,"pop":18530},{"name":"Балта","lat":47.936,"lng":29.6223,"pop":18511},{"name":"Калинівка","lat":49.4613,"lng":28.5154,"pop":18492},{"name":"Волочиськ","lat":49.5361,"lng":26.2068,"pop":18474},{"name":"Гостомель","lat":50.5684,"lng":30.2651,"pop":18466},{"name":"Долинська","lat":48.1172,"lng":32.7769,"pop":18225},{"name":"Kurakhove","lat":47.9847,"lng":37.2794,"pop":18220},{"name":"Пятихатки","lat":48.4082,"lng":33.7092,"pop":18140},{"name":"Кремінна","lat":49.0495,"lng":38.2189,"pop":18116},{"name":"Пологи","lat":47.4787,"lng":36.2546,"pop":18111},{"name":"Амвросіївка","lat":47.7927,"lng":38.4782,"pop":17998},{"name":"Скадовськ","lat":46.1131,"lng":32.9098,"pop":17915},{"name":"Pelahiyivka","lat":48.1075,"lng":38.6134,"pop":17877},{"name":"Зугрес","lat":48.0143,"lng":38.266,"pop":17871},{"name":"Роздільна","lat":46.8548,"lng":30.0709,"pop":17858},{"name":"Богодухів","lat":50.1646,"lng":35.5273,"pop":17818},{"name":"Корсунь-Шевченківський","lat":49.4182,"lng":31.2517,"pop":17763},{"name":"Дніпрорудне","lat":47.3899,"lng":35.0007,"pop":17736},{"name":"Бережани","lat":49.4458,"lng":24.9369,"pop":17697},{"name":"Коцюбинське","lat":50.4884,"lng":30.3296,"pop":17623},{"name":"Вовчанськ","lat":50.2908,"lng":36.9411,"pop":17459},{"name":"Сквира","lat":49.733,"lng":29.6643,"pop":17452},{"name":"Дергачі","lat":50.1066,"lng":36.1211,"pop":17139},{"name":"Свалява","lat":48.5474,"lng":22.9867,"pop":17068},{"name":"Lutuhyne","lat":48.4051,"lng":39.2268,"pop":17061},{"name":"Yuvileyne","lat":48.5559,"lng":39.1828,"pop":16948},{"name":"Мостиська","lat":49.7947,"lng":23.1508,"pop":16945},{"name":"Бахмач","lat":51.1814,"lng":32.8346,"pop":16862},{"name":"Шпола","lat":49.0129,"lng":31.3926,"pop":16674},{"name":"Судак","lat":44.8492,"lng":34.9747,"pop":16597},{"name":"Звенигородка","lat":49.0776,"lng":30.9607,"pop":16490},{"name":"Новоукраїнка","lat":48.3166,"lng":31.5236,"pop":16479},{"name":"Білогірськ","lat":45.0568,"lng":34.6039,"pop":16428},{"name":"Березань","lat":50.3112,"lng":31.4671,"pop":16202},{"name":"Петрівське","lat":50.3821,"lng":30.3228,"pop":16200},{"name":"Ізяслав","lat":50.1198,"lng":26.8248,"pop":16162},{"name":"Сватове","lat":49.4072,"lng":38.1536,"pop":16145},{"name":"Городок","lat":49.1721,"lng":26.5636,"pop":16046},{"name":"Городок","lat":49.7848,"lng":23.6481,"pop":15993},{"name":"Старобільськ","lat":49.2772,"lng":38.9167,"pop":15947},{"name":"Апостолове","lat":47.6598,"lng":33.7195,"pop":15828},{"name":"Слобожанське","lat":49.597,"lng":36.5262,"pop":15825},{"name":"Богуслав","lat":49.5464,"lng":30.8741,"pop":15789},{"name":"Багачеве","lat":49.012,"lng":31.0466,"pop":15763},{"name":"Дунаївці","lat":48.887,"lng":26.8482,"pop":15707},{"name":"Рахів","lat":48.0547,"lng":24.2031,"pop":15621},{"name":"Білопілля","lat":51.1502,"lng":34.3129,"pop":15600},{"name":"Бортничі","lat":50.3849,"lng":30.6954,"pop":15500},{"name":"Верхньодніпровськ","lat":48.6556,"lng":34.3262,"pop":15477},{"name":"Іловайськ","lat":47.925,"lng":38.2024,"pop":15447},{"name":"Бар","lat":49.0736,"lng":27.674,"pop":15337},{"name":"Овруч","lat":51.3274,"lng":28.8016,"pop":15332},{"name":"Радомишль","lat":50.4962,"lng":29.23,"pop":15252},{"name":"Червонопартизанськ","lat":48.0761,"lng":39.7962,"pop":15218},{"name":"Вільнянськ","lat":47.9477,"lng":35.4403,"pop":15044},{"name":"Болград","lat":45.6779,"lng":28.6181,"pop":15044},{"name":"Тульчин","lat":48.674,"lng":28.8685,"pop":15011},{"name":"Пирятин","lat":50.2439,"lng":32.5203,"pop":14988},{"name":"Новий Буг","lat":47.6906,"lng":32.5121,"pop":14969},{"name":"Острог","lat":50.329,"lng":26.5211,"pop":14894},{"name":"Путивль","lat":51.3374,"lng":33.8707,"pop":14886},{"name":"Бурштин","lat":49.2519,"lng":24.6334,"pop":14737},{"name":"Krasnohorivka","lat":48.0053,"lng":37.5084,"pop":14666},{"name":"Білозерське","lat":48.5337,"lng":37.0627,"pop":14634},{"name":"Гайворон","lat":48.3432,"lng":29.8659,"pop":14523},{"name":"Миколаїв","lat":49.5255,"lng":23.9779,"pop":14498},{"name":"Оріхів","lat":47.5761,"lng":35.7833,"pop":14479},{"name":"Карлівка","lat":49.4555,"lng":35.1349,"pop":14470},{"name":"Новгород-Сіверський","lat":52.0068,"lng":33.2634,"pop":14400},{"name":"Тетіїв","lat":49.3695,"lng":29.6779,"pop":14388},{"name":"Арциз","lat":45.9853,"lng":29.4329,"pop":14355},{"name":"Нижня Кринка","lat":48.1138,"lng":38.1596,"pop":14253},{"name":"Корюківка","lat":51.7746,"lng":32.2475,"pop":14215},{"name":"Миколаїв","lat":48.8546,"lng":37.7728,"pop":14210},{"name":"Сторожинець","lat":48.1594,"lng":25.7214,"pop":14198},{"name":"Вугледар","lat":47.7797,"lng":37.2499,"pop":14144},{"name":"Novohrodivka","lat":48.2014,"lng":37.3394,"pop":14037},{"name":"Великодолинське","lat":46.3464,"lng":30.579,"pop":13856},{"name":"Жовква","lat":50.0575,"lng":23.9735,"pop":13852},{"name":"Бородянка","lat":50.6448,"lng":29.9201,"pop":13832},{"name":"Ківерці","lat":50.8352,"lng":25.456,"pop":13798},{"name":"Збараж","lat":49.6616,"lng":25.7793,"pop":13746},{"name":"Зміїв","lat":49.6889,"lng":36.3576,"pop":13737},{"name":"Очаків","lat":46.6147,"lng":31.545,"pop":13663},{"name":"Українка","lat":50.1432,"lng":30.7461,"pop":13636},{"name":"Городище","lat":49.2911,"lng":31.4403,"pop":13609},{"name":"Слобожанське","lat":48.532,"lng":35.0715,"pop":13556},{"name":"Нова Одеса","lat":47.3127,"lng":31.7697,"pop":13547},{"name":"Гола Пристань","lat":46.5297,"lng":32.5241,"pop":13544},{"name":"Yunokomunarivsk","lat":48.2214,"lng":38.2837,"pop":13495},{"name":"Гуляйполе","lat":47.6668,"lng":36.2558,"pop":13446},{"name":"Теребовля","lat":49.2997,"lng":25.6889,"pop":13425},{"name":"Тальне","lat":48.8889,"lng":30.6965,"pop":13318},{"name":"Таромське","lat":48.4428,"lng":34.7885,"pop":13289},{"name":"Рожище","lat":50.9163,"lng":25.2712,"pop":13280},{"name":"Березне","lat":51.0034,"lng":26.7462,"pop":13280},{"name":"Жашків","lat":49.2459,"lng":30.0989,"pop":13242},{"name":"Кагарлик","lat":49.859,"lng":30.8233,"pop":13133},{"name":"Лиманка","lat":46.3856,"lng":30.6774,"pop":13085},{"name":"Zolote","lat":48.6952,"lng":38.5151,"pop":13007},{"name":"Тараща","lat":49.5588,"lng":30.4997,"pop":12952},{"name":"Носівка","lat":50.938,"lng":31.5803,"pop":12908},{"name":"Яворів","lat":49.9377,"lng":23.3835,"pop":12785},{"name":"Антонівка","lat":46.6767,"lng":32.7306,"pop":12777},{"name":"Zelenodol’s’k","lat":47.555,"lng":33.6591,"pop":12692},{"name":"Перегінське","lat":48.8112,"lng":24.192,"pop":12681},{"name":"Petrovs’ke","lat":48.2966,"lng":38.8789,"pop":12642},{"name":"Гвардійське","lat":45.1169,"lng":34.0219,"pop":12589},{"name":"Василівка","lat":47.4422,"lng":35.2821,"pop":12567},{"name":"Приморський","lat":45.112,"lng":35.4786,"pop":12560},{"name":"Хорол","lat":49.7829,"lng":33.2718,"pop":12540},{"name":"Гатне","lat":50.3544,"lng":30.375,"pop":12500},{"name":"Біляївка","lat":46.4843,"lng":30.2089,"pop":12477},{"name":"Берислав","lat":46.8385,"lng":33.4266,"pop":12417},{"name":"Солоницівка","lat":49.9968,"lng":36.0346,"pop":12378},{"name":"Stanytsya Luhans’ka","lat":48.6625,"lng":39.4836,"pop":12258},{"name":"Chasiv Yar","lat":48.5936,"lng":37.8554,"pop":12250},{"name":"Бершадь","lat":48.3635,"lng":29.5146,"pop":12205},{"name":"Гнівань","lat":49.0939,"lng":28.3378,"pop":12191},{"name":"Баштанка","lat":47.4053,"lng":32.4344,"pop":12180},{"name":"Бучач","lat":49.0623,"lng":25.395,"pop":12171},{"name":"Котельва","lat":50.0685,"lng":34.747,"pop":12122},{"name":"Кам’янка-Дніпровська","lat":47.4963,"lng":34.4103,"pop":12117},{"name":"Снігурівка","lat":47.0765,"lng":32.8197,"pop":12045},{"name":"Чайки","lat":50.4303,"lng":30.2839,"pop":12000},{"name":"Михайлівка","lat":47.2686,"lng":35.2221,"pop":11949},{"name":"Узин","lat":49.8246,"lng":30.4252,"pop":11921},{"name":"Zhdanivka","lat":48.1532,"lng":38.2569,"pop":11867},{"name":"Manevychi","lat":51.2938,"lng":25.5306,"pop":11775},{"name":"Немирів","lat":48.97,"lng":28.8378,"pop":11662},{"name":"Ові́діополь","lat":46.2472,"lng":30.4375,"pop":11572},{"name":"Костянтинівка","lat":46.8178,"lng":35.4242,"pop":11540},{"name":"Городня","lat":51.8913,"lng":31.5963,"pop":11506},{"name":"Кам’янка","lat":49.0395,"lng":32.1017,"pop":11501},{"name":"Комсомольське","lat":47.6639,"lng":38.0775,"pop":11422},{"name":"Vakhrusheve","lat":48.1512,"lng":38.7804,"pop":11421},{"name":"Shchastya","lat":48.7378,"lng":39.2305,"pop":11411},{"name":"Зимна Вода","lat":49.8263,"lng":23.8822,"pop":11365},{"name":"Іллінці","lat":49.1054,"lng":29.2059,"pop":11284},{"name":"Баранівка","lat":50.2969,"lng":27.6622,"pop":11161},{"name":"Приморськ","lat":46.7341,"lng":36.346,"pop":11157},{"name":"Красногвардійське","lat":45.5027,"lng":34.3013,"pop":11134},{"name":"Світлодарськ","lat":48.4337,"lng":38.2233,"pop":11127},{"name":"Миронівка","lat":49.6601,"lng":30.9823,"pop":11103},{"name":"Якимівка","lat":46.7011,"lng":35.1633,"pop":11069},{"name":"Novoazovs'k","lat":47.1139,"lng":38.086,"pop":11051},{"name":"Камінь-Каширський","lat":51.6251,"lng":24.9628,"pop":11042},{"name":"Чорноморське","lat":45.5066,"lng":32.6978,"pop":11039},{"name":"Лохвиця","lat":50.3644,"lng":33.2715,"pop":11014},{"name":"Високий","lat":49.8916,"lng":36.1217,"pop":10988},{"name":"Ямпіль","lat":48.2406,"lng":28.2814,"pop":10957},{"name":"Мена","lat":51.5221,"lng":32.2136,"pop":10935},{"name":"Sivers’k","lat":48.8659,"lng":38.0978,"pop":10875},{"name":"Sosnivka","lat":50.2897,"lng":24.2514,"pop":10838},{"name":"Татарбунари","lat":45.8386,"lng":29.6112,"pop":10836},{"name":"Бобринець","lat":48.0567,"lng":32.1655,"pop":10758},{"name":"Новомиргород","lat":48.8169,"lng":31.6499,"pop":10715},{"name":"Ukrayins’k","lat":48.0978,"lng":37.3653,"pop":10655},{"name":"Новотроїцьке","lat":46.3509,"lng":34.3325,"pop":10647},{"name":"Борщів","lat":48.8032,"lng":26.0317,"pop":10632},{"name":"Щорс","lat":51.8167,"lng":31.9425,"pop":10620},{"name":"Щолкіне","lat":45.4299,"lng":35.8225,"pop":10593},{"name":"Новодністровськ","lat":48.5832,"lng":27.4366,"pop":10590},{"name":"Гребінка","lat":50.1202,"lng":32.4297,"pop":10541},{"name":"Бобровиця","lat":50.7456,"lng":31.382,"pop":10541},{"name":"Соледар","lat":48.6908,"lng":38.0743,"pop":10490},{"name":"Моспине","lat":47.8901,"lng":38.0638,"pop":10471},{"name":"Нова Водолага","lat":49.7199,"lng":35.8696,"pop":10455},{"name":"Красноїльськ","lat":48.0187,"lng":25.56,"pop":10428},{"name":"Радивилів","lat":50.1304,"lng":25.2518,"pop":10427},{"name":"Совєтський","lat":45.3427,"lng":34.9246,"pop":10410},{"name":"Ічня","lat":50.8591,"lng":32.3913,"pop":10390},{"name":"Королево","lat":48.1573,"lng":23.1377,"pop":10385},{"name":"Мала Виска","lat":48.6469,"lng":31.6323,"pop":10382},{"name":"Валки","lat":49.836,"lng":35.6122,"pop":10381},{"name":"Hirnyk","lat":48.0573,"lng":37.3716,"pop":10357},{"name":"Zhydachiv","lat":49.3832,"lng":24.1392,"pop":10353},{"name":"Летичів","lat":49.3801,"lng":27.6189,"pop":10335},{"name":"Гаспра","lat":44.4336,"lng":34.103,"pop":10310},{"name":"Любомль","lat":51.2254,"lng":24.0323,"pop":10295},{"name":"Баришівка","lat":50.361,"lng":31.3217,"pop":10294},{"name":"Верхівцеве","lat":48.4813,"lng":34.24,"pop":10262},{"name":"Болехів","lat":49.0648,"lng":23.8595,"pop":10259},{"name":"Октябрське","lat":45.2887,"lng":34.1352,"pop":10244},{"name":"Інкерман","lat":44.6139,"lng":33.6098,"pop":10204},{"name":"Новоолексіївка","lat":46.23,"lng":34.6458,"pop":10154},{"name":"Таврійськ","lat":46.7543,"lng":33.4166,"pop":10108},{"name":"Сартана","lat":47.177,"lng":37.6927,"pop":10070},{"name":"Olevs’k","lat":51.2248,"lng":27.6523,"pop":10032},{"name":"Іванків","lat":50.9387,"lng":29.8943,"pop":9993},{"name":"Покотилівка","lat":49.9134,"lng":36.1751,"pop":9962},{"name":"Теплодар","lat":46.502,"lng":30.3226,"pop":9958},{"name":"Снятин","lat":48.4488,"lng":25.5599,"pop":9942},{"name":"Дубове","lat":48.1747,"lng":23.8869,"pop":9938},{"name":"Христинівка","lat":48.8128,"lng":29.9688,"pop":9879},{"name":"Покровське","lat":47.9813,"lng":36.2345,"pop":9868},{"name":"Rodyns’ke","lat":48.3541,"lng":37.2064,"pop":9850},{"name":"Hresivs’kyy","lat":45.008,"lng":34.0266,"pop":9835},{"name":"Дубляни","lat":49.9041,"lng":24.0864,"pop":9793},{"name":"Кобеляки","lat":49.1494,"lng":34.2019,"pop":9772},{"name":"Деражня","lat":49.2692,"lng":27.4291,"pop":9772},{"name":"Нью-Йорк","lat":48.3303,"lng":37.8411,"pop":9735},{"name":"Перещепине","lat":49.0251,"lng":35.3689,"pop":9720},{"name":"Веселе","lat":47.0097,"lng":34.9184,"pop":9719},{"name":"Чаплинка","lat":46.3645,"lng":33.5409,"pop":9687},{"name":"Radekhiv","lat":50.2809,"lng":24.6384,"pop":9680},{"name":"Ratne","lat":51.6692,"lng":24.5264,"pop":9657},{"name":"Velyki Luchky","lat":48.4171,"lng":22.5726,"pop":9650},{"name":"Березівка","lat":47.2004,"lng":30.9094,"pop":9644},{"name":"Широке","lat":47.6855,"lng":33.2615,"pop":9623},{"name":"Погребище","lat":49.4851,"lng":29.2599,"pop":9620},{"name":"Новопсков","lat":49.5332,"lng":39.1185,"pop":9619},{"name":"Велика Димерка","lat":50.5933,"lng":30.9031,"pop":9606},{"name":"Макарів","lat":50.4641,"lng":29.8113,"pop":9589},{"name":"Міжгір’я","lat":48.5243,"lng":23.5009,"pop":9567},{"name":"Білозерка","lat":46.6265,"lng":32.4445,"pop":9565},{"name":"Зимогір’я","lat":48.5853,"lng":38.9375,"pop":9557},{"name":"Смоліне","lat":48.6013,"lng":31.3129,"pop":9547},{"name":"Зіньків","lat":50.2099,"lng":34.3595,"pop":9514},{"name":"Новий Світ","lat":47.8067,"lng":38.021,"pop":9488},{"name":"Борзна","lat":51.2534,"lng":32.4269,"pop":9454},{"name":"Bilen’ke","lat":48.7659,"lng":37.6331,"pop":9441},{"name":"Пустомити","lat":49.7169,"lng":23.9068,"pop":9434},{"name":"Глибока","lat":48.0876,"lng":25.9284,"pop":9424},{"name":"Опришени","lat":48.0533,"lng":26.027,"pop":9376},{"name":"Черепківці","lat":48.0156,"lng":25.9643,"pop":9376},{"name":"Старий Крим","lat":45.0289,"lng":35.0917,"pop":9370},{"name":"Глобине","lat":49.3789,"lng":33.2756,"pop":9349},{"name":"Дубровиця","lat":51.5708,"lng":26.5637,"pop":9343},{"name":"Червона Слобода","lat":49.3728,"lng":32.1574,"pop":9333},{"name":"Volodymyrets’","lat":51.4191,"lng":26.1435,"pop":9315},{"name":"Безлюдівка","lat":49.8755,"lng":36.2654,"pop":9296},{"name":"Тисмениця","lat":48.9036,"lng":24.8469,"pop":9287},{"name":"Мирне","lat":44.9833,"lng":34.0616,"pop":9284},{"name":"Hirs’ke","lat":48.7498,"lng":38.4952,"pop":9274},{"name":"Rozsoshentsi","lat":49.5409,"lng":34.5057,"pop":9272},{"name":"Teplohirs’k","lat":48.599,"lng":38.5882,"pop":9270},{"name":"Великий Бичків","lat":47.9682,"lng":24.0106,"pop":9255},{"name":"Каланчак","lat":46.255,"lng":33.2906,"pop":9251},{"name":"Решетилівка","lat":49.563,"lng":34.079,"pop":9240},{"name":"Черняхів","lat":50.4541,"lng":28.6672,"pop":9214},{"name":"Обухівка","lat":48.5488,"lng":34.8539,"pop":9178},{"name":"Стрижавка","lat":49.3096,"lng":28.4721,"pop":9165},{"name":"Іршава","lat":48.3123,"lng":23.0406,"pop":9163},{"name":"Mar”yinka","lat":47.9453,"lng":37.5054,"pop":9089},{"name":"Любашівка","lat":47.8339,"lng":30.2521,"pop":9055},{"name":"Ільниця","lat":48.3566,"lng":23.0762,"pop":9050},{"name":"Тячів","lat":48.0109,"lng":23.5717,"pop":9019},{"name":"Велика Знам’янка","lat":47.4454,"lng":34.3508,"pop":8989},{"name":"Козова","lat":49.4321,"lng":25.1455,"pop":8989},{"name":"Khodoriv","lat":49.4074,"lng":24.3129,"pop":8954},{"name":"Чорнобаївка","lat":46.6964,"lng":32.5471,"pop":8954},{"name":"Хотин","lat":48.5055,"lng":26.4898,"pop":8936},{"name":"Гурзуф","lat":44.5462,"lng":34.2784,"pop":8933},{"name":"Заліщики","lat":48.641,"lng":25.7317,"pop":8928},{"name":"Chervonyy Donets’","lat":49.5083,"lng":36.5667,"pop":8893},{"name":"Тлумач","lat":48.8652,"lng":25.0038,"pop":8886},{"name":"Сокиряни","lat":48.4491,"lng":27.4114,"pop":8877},{"name":"Mahala","lat":48.2941,"lng":26.0425,"pop":8876},{"name":"Яворницьке","lat":48.4046,"lng":35.2793,"pop":8836},{"name":"Городенка","lat":48.669,"lng":25.5033,"pop":8812},{"name":"Крижопіль","lat":48.3821,"lng":28.8677,"pop":8754},{"name":"Помічна","lat":48.2398,"lng":31.4087,"pop":8750},{"name":"Глеваха","lat":50.2742,"lng":30.3271,"pop":8742},{"name":"Нижньогірський","lat":45.4479,"lng":34.7384,"pop":8741},{"name":"Чигирин","lat":49.0804,"lng":32.6608,"pop":8664},{"name":"Монастирище","lat":48.9949,"lng":29.8099,"pop":8647},{"name":"Солотвино","lat":47.9473,"lng":23.8743,"pop":8632},{"name":"Чоп","lat":48.4316,"lng":22.2045,"pop":8626},{"name":"Bilovods'k","lat":49.2085,"lng":39.5898,"pop":8626},{"name":"Ясіня","lat":48.2726,"lng":24.3603,"pop":8559},{"name":"Нерубайське","lat":46.5444,"lng":30.6292,"pop":8558},{"name":"Успенка","lat":48.3908,"lng":39.1628,"pop":8550},{"name":"Дачне","lat":46.5784,"lng":30.5473,"pop":8549},{"name":"Нове","lat":48.5273,"lng":32.1222,"pop":8533},{"name":"Косів","lat":48.3205,"lng":25.0911,"pop":8522},{"name":"Кодима","lat":48.1031,"lng":29.126,"pop":8514},{"name":"Грушово","lat":48.0068,"lng":23.7743,"pop":8500},{"name":"Берковець","lat":50.4945,"lng":30.3701,"pop":8500},{"name":"Рава-Руська","lat":50.2325,"lng":23.6217,"pop":8494},{"name":"Усатове","lat":46.5289,"lng":30.6495,"pop":8483},{"name":"Первомайське","lat":45.7174,"lng":33.856,"pop":8470},{"name":"Олександрівка","lat":48.968,"lng":32.2397,"pop":8464},{"name":"Андрушівка","lat":50.0192,"lng":29.0188,"pop":8458},{"name":"Horokhiv","lat":50.5022,"lng":24.7568,"pop":8444},{"name":"Буштино","lat":48.0473,"lng":23.4858,"pop":8444},{"name":"Ланівці","lat":49.861,"lng":26.0905,"pop":8434},{"name":"Велика Березовиця","lat":49.4987,"lng":25.6123,"pop":8391},{"name":"Буринь","lat":51.1993,"lng":33.8332,"pop":8359},{"name":"Bus’k","lat":49.9655,"lng":24.6123,"pop":8355},{"name":"Липовець","lat":49.2278,"lng":29.0567,"pop":8303},{"name":"Делятин","lat":48.5248,"lng":24.6257,"pop":8276},{"name":"Вишково","lat":48.0489,"lng":23.4199,"pop":8243},{"name":"Млинів","lat":50.5103,"lng":25.6172,"pop":8228},{"name":"Богородчани","lat":48.8081,"lng":24.5373,"pop":8222},{"name":"Куп’янськ-Вузловий","lat":49.6706,"lng":37.6432,"pop":8212},{"name":"Нові Санжари","lat":49.3338,"lng":34.315,"pop":8179},{"name":"Kvasyliv","lat":50.5623,"lng":26.2594,"pop":8117},{"name":"Яремче","lat":48.4489,"lng":24.5533,"pop":8094},{"name":"Алупка","lat":44.4195,"lng":34.0449,"pop":8087},{"name":"Слов'яносербськ","lat":48.6978,"lng":38.9813,"pop":8065},{"name":"Білки","lat":48.3141,"lng":23.1326,"pop":8064},{"name":"Велика Лепетиха","lat":47.1714,"lng":33.9315,"pop":8047},{"name":"Yasnohirka","lat":48.7737,"lng":37.554,"pop":8030},{"name":"Krasnokuts’k","lat":50.066,"lng":35.1628,"pop":8008},{"name":"Ржищів","lat":49.9673,"lng":31.0407,"pop":7993},{"name":"Врадіївка","lat":47.8642,"lng":30.5888,"pop":7956},{"name":"Заставна","lat":48.5214,"lng":25.8426,"pop":7896},{"name":"Podvirky","lat":49.9799,"lng":36.0924,"pop":7890},{"name":"Кушугум","lat":47.7096,"lng":35.2164,"pop":7886},{"name":"Ланчин","lat":48.5517,"lng":24.7492,"pop":7855},{"name":"Краснопілля","lat":50.7746,"lng":35.2597,"pop":7849},{"name":"Підволочиськ","lat":49.5313,"lng":26.144,"pop":7843},{"name":"Барвінкове","lat":48.9059,"lng":37.0228,"pop":7840},{"name":"Заводське","lat":50.4006,"lng":33.4012,"pop":7832},{"name":"Сосниця","lat":51.5239,"lng":32.4999,"pop":7825},{"name":"Рогатин","lat":49.4104,"lng":24.611,"pop":7797},{"name":"Семенівка","lat":52.1786,"lng":32.5818,"pop":7792},{"name":"Ананьїв","lat":47.7197,"lng":29.9571,"pop":7789},{"name":"Руська Поляна","lat":49.417,"lng":31.9201,"pop":7780},{"name":"Новоайдар","lat":48.964,"lng":39.0056,"pop":7773},{"name":"Bilyts’ke","lat":48.4064,"lng":37.1811,"pop":7764},{"name":"Золочів","lat":50.2799,"lng":35.9818,"pop":7744},{"name":"Лисянка","lat":49.2505,"lng":30.8278,"pop":7737},{"name":"Мангуш","lat":47.0562,"lng":37.3119,"pop":7731},{"name":"Panteleymonivka","lat":48.2015,"lng":37.9739,"pop":7727},{"name":"Великий Березний","lat":48.8934,"lng":22.4612,"pop":7713},{"name":"Вилкове","lat":45.4028,"lng":29.5869,"pop":7712},{"name":"Білокуракине","lat":49.5346,"lng":38.7272,"pop":7712},{"name":"Нові Петрівці","lat":50.6275,"lng":30.4431,"pop":7700},{"name":"Почаїв","lat":50.0041,"lng":25.5093,"pop":7691},{"name":"Варва","lat":50.4986,"lng":32.7227,"pop":7689},{"name":"Випасне","lat":46.1909,"lng":30.2562,"pop":7675},{"name":"Диканька","lat":49.8259,"lng":34.522,"pop":7662},{"name":"Велекий Дальник","lat":46.4749,"lng":30.561,"pop":7655},{"name":"Kozelets’","lat":50.9121,"lng":31.1166,"pop":7646},{"name":"Маньківка","lat":48.9639,"lng":30.3363,"pop":7634},{"name":"Олександрівка","lat":46.3287,"lng":30.6356,"pop":7600},{"name":"Молодіжне","lat":45.0035,"lng":34.0563,"pop":7597},{"name":"Новоселиця","lat":48.2181,"lng":26.2677,"pop":7588},{"name":"Власівка","lat":49.1183,"lng":33.2797,"pop":7587},{"name":"Тростянець","lat":48.5091,"lng":29.2274,"pop":7584},{"name":"Криве Озеро","lat":47.9476,"lng":30.347,"pop":7583},{"name":"Берегомет","lat":48.1715,"lng":25.3303,"pop":7583},{"name":"Солоне","lat":48.2091,"lng":34.8758,"pop":7557},{"name":"Березнегувате","lat":47.3087,"lng":32.851,"pop":7552},{"name":"Тересва","lat":47.9977,"lng":23.699,"pop":7547},{"name":"Малинівка","lat":49.8167,"lng":36.7333,"pop":7502},{"name":"Краснопавлівка","lat":49.137,"lng":36.3201,"pop":7495},{"name":"Нова Збур’ївка","lat":46.4546,"lng":32.4528,"pop":7489},{"name":"Kripens’kyy","lat":48.0771,"lng":39.058,"pop":7487},{"name":"Леніне","lat":45.2986,"lng":35.7771,"pop":7426},{"name":"Турка","lat":49.1536,"lng":23.0293,"pop":7395},{"name":"Ярмолинці","lat":49.1927,"lng":26.8344,"pop":7381},{"name":"Володарка","lat":49.5254,"lng":29.9102,"pop":7355},{"name":"Рудно","lat":49.8333,"lng":23.9,"pop":7350},{"name":"Хорошів","lat":50.5948,"lng":28.4449,"pop":7337},{"name":"Зарічне","lat":51.8139,"lng":26.1308,"pop":7336},{"name":"Ivanivka","lat":48.2431,"lng":38.945,"pop":7333},{"name":"Царичанка","lat":48.9419,"lng":34.486,"pop":7328},{"name":"Роздольне","lat":45.7708,"lng":33.4878,"pop":7326},{"name":"Південне","lat":49.8832,"lng":36.0685,"pop":7319},{"name":"Romaniv","lat":50.1473,"lng":27.9314,"pop":7318},{"name":"Вапнярка","lat":48.5311,"lng":28.747,"pop":7316},{"name":"Babayi","lat":49.8963,"lng":36.1931,"pop":7304},{"name":"Vuhlehirs’k","lat":48.3142,"lng":38.2719,"pop":7294},{"name":"Перемишляни","lat":49.6693,"lng":24.5576,"pop":7284},{"name":"Масандра","lat":44.5096,"lng":34.1882,"pop":7280},{"name":"Komunist","lat":49.8925,"lng":36.4516,"pop":7251},{"name":"Борова","lat":50.1763,"lng":30.1043,"pop":7241},{"name":"Nyzhnya Apsha","lat":48.0037,"lng":23.8329,"pop":7227},{"name":"Мала Данилівка","lat":50.0635,"lng":36.1656,"pop":7211},{"name":"Кельменці","lat":48.4664,"lng":26.8328,"pop":7211},{"name":"Artemivs’k","lat":48.4406,"lng":38.732,"pop":7203},{"name":"Yampil’","lat":51.9477,"lng":33.7876,"pop":7200},{"name":"Чорнобай","lat":49.6707,"lng":32.3236,"pop":7162},{"name":"Середина-Буда","lat":52.1889,"lng":34.0361,"pop":7161},{"name":"Петрове","lat":48.3381,"lng":33.2653,"pop":7150},{"name":"Троїцьке","lat":49.9145,"lng":38.2927,"pop":7144},{"name":"Понінка","lat":50.1841,"lng":27.5282,"pop":7120},{"name":"Лиманське","lat":46.6795,"lng":29.9723,"pop":7119},{"name":"Шабо","lat":46.1266,"lng":30.3857,"pop":7108},{"name":"Zoryns’k","lat":48.4119,"lng":38.6236,"pop":7096},{"name":"Шевченкове","lat":49.6952,"lng":37.1751,"pop":7090},{"name":"Марківка","lat":49.5228,"lng":39.5707,"pop":7087},{"name":"Гусятин","lat":49.0712,"lng":26.2046,"pop":7083},{"name":"Шаргород","lat":48.7356,"lng":28.0846,"pop":7067},{"name":"Кіровське","lat":45.2297,"lng":35.1999,"pop":7064},{"name":"Лиманівка","lat":48.9388,"lng":36.2783,"pop":7038},{"name":"Межова","lat":48.2542,"lng":36.7318,"pop":7022},{"name":"Чорноморське","lat":46.584,"lng":30.9307,"pop":7020},{"name":"Сахновщина","lat":49.1489,"lng":35.8737,"pop":7010},{"name":"Казанка","lat":47.8269,"lng":32.8306,"pop":6972},{"name":"Віліне","lat":44.8456,"lng":33.6716,"pop":6960},{"name":"Петропавлівка","lat":48.4635,"lng":36.4306,"pop":6944},{"name":"Корець","lat":50.6192,"lng":27.1579,"pop":6914},{"name":"Десна","lat":50.9274,"lng":30.7668,"pop":6906},{"name":"Комишани","lat":46.6399,"lng":32.5034,"pop":6896},{"name":"Пересічна","lat":50.0245,"lng":35.9787,"pop":6894},{"name":"Пісківка","lat":50.6938,"lng":29.6193,"pop":6889},{"name":"Ворзель","lat":50.5444,"lng":30.1531,"pop":6859},{"name":"Kominternivske","lat":46.821,"lng":30.9452,"pop":6847},{"name":"Кам'янка","lat":48.0279,"lng":25.8996,"pop":6847},{"name":"Томаківка","lat":47.8108,"lng":34.7432,"pop":6828},{"name":"Нова Маячка","lat":46.5994,"lng":33.2243,"pop":6811},{"name":"Ворожба","lat":51.1733,"lng":34.2192,"pop":6809},{"name":"Більмак","lat":47.3591,"lng":36.6533,"pop":6802},{"name":"Щасливе","lat":50.3785,"lng":30.7958,"pop":6800},{"name":"Біле","lat":48.4952,"lng":39.0505,"pop":6775},{"name":"Velyki Kom”yaty","lat":48.2374,"lng":22.9772,"pop":6772},{"name":"Vinnytski Khutory","lat":49.2069,"lng":28.5548,"pop":6770},{"name":"Чинадійово","lat":48.4867,"lng":22.8337,"pop":6762},{"name":"Hol’mivs’kyy","lat":48.4039,"lng":38.082,"pop":6750},{"name":"Буди","lat":49.8913,"lng":36.021,"pop":6742},{"name":"Ладан","lat":50.5183,"lng":32.5842,"pop":6719},{"name":"Петрівка","lat":45.4978,"lng":34.2882,"pop":6714},{"name":"Novodruzhes’k","lat":48.9635,"lng":38.352,"pop":6705},{"name":"Хоростків","lat":49.2139,"lng":25.9196,"pop":6703},{"name":"Зборів","lat":49.6649,"lng":25.1402,"pop":6695},{"name":"Перечин","lat":48.7349,"lng":22.4772,"pop":6683},{"name":"Vil’shany","lat":50.0544,"lng":35.8823,"pop":6682},{"name":"Велика Олександрівка","lat":47.3189,"lng":33.2906,"pop":6654},{"name":"Літин","lat":49.3271,"lng":28.087,"pop":6652},{"name":"Ріпки","lat":51.8017,"lng":31.0858,"pop":6643},{"name":"Карнаухівка","lat":48.4754,"lng":34.7363,"pop":6634},{"name":"Софіївка","lat":48.0473,"lng":33.8724,"pop":6601},{"name":"Нова Прага","lat":48.5687,"lng":32.9043,"pop":6593},{"name":"Приазовське","lat":46.7312,"lng":35.6408,"pop":6578},{"name":"Sofiyivska Borschagivka","lat":50.41,"lng":30.3672,"pop":6571},{"name":"Voronizh","lat":51.7757,"lng":33.4594,"pop":6560},{"name":"Слатине","lat":50.2104,"lng":36.1538,"pop":6544},{"name":"Кубей","lat":45.7913,"lng":28.7446,"pop":6544},{"name":"Горностаївка","lat":47.0117,"lng":33.7299,"pop":6541},{"name":"Довге","lat":48.3665,"lng":23.2811,"pop":6541},{"name":"Ширяэве","lat":47.3848,"lng":30.1907,"pop":6537},{"name":"Рокитне","lat":51.2789,"lng":27.2171,"pop":6521},{"name":"Привілля","lat":49.0056,"lng":38.2988,"pop":6520},{"name":"Вороновиця","lat":49.109,"lng":28.6868,"pop":6516},{"name":"Теофіполь","lat":49.8389,"lng":26.4204,"pop":6509},{"name":"Копичинці","lat":49.103,"lng":25.9116,"pop":6502},{"name":"Сколе","lat":49.0377,"lng":23.5136,"pop":6491},{"name":"Петропавлівська Борщагівка","lat":50.4369,"lng":30.3375,"pop":6485},{"name":"Судова Вишня","lat":49.7868,"lng":23.374,"pop":6470},{"name":"Брюховичі","lat":49.9047,"lng":23.9597,"pop":6440},{"name":"Лозуватка","lat":48.0601,"lng":33.2814,"pop":6412},{"name":"Oleksandrivs’k","lat":48.5861,"lng":39.1895,"pop":6401},{"name":"Dobrotvir","lat":50.2053,"lng":24.3835,"pop":6381},{"name":"Драбів","lat":49.9589,"lng":32.1503,"pop":6358},{"name":"Irshans’k","lat":50.7532,"lng":28.7212,"pop":6346},{"name":"Heorhiyivka","lat":48.4228,"lng":39.2528,"pop":6287},{"name":"Velyki Mosty","lat":50.2432,"lng":24.14,"pop":6286},{"name":"Циркуни","lat":50.0926,"lng":36.3622,"pop":6284},{"name":"Клішківці","lat":48.4234,"lng":26.2523,"pop":6279},{"name":"Червоногригорівка","lat":47.6191,"lng":34.5378,"pop":6270},{"name":"Арбузинка","lat":47.9079,"lng":31.317,"pop":6266},{"name":"Саврань","lat":48.1293,"lng":30.0833,"pop":6264},{"name":"Фонтанка","lat":46.5702,"lng":30.8547,"pop":6260},{"name":"Теплик","lat":48.6654,"lng":29.7448,"pop":6250},{"name":"Красне","lat":49.914,"lng":24.6149,"pop":6250},{"name":"Нововоронцовка","lat":47.505,"lng":33.9232,"pop":6248},{"name":"Градизьк","lat":49.2394,"lng":33.1394,"pop":6248},{"name":"Зуя","lat":45.0542,"lng":34.3215,"pop":6230},{"name":"Кіцмань","lat":48.4387,"lng":25.7611,"pop":6229},{"name":"Івано-Франкове","lat":49.9217,"lng":23.7249,"pop":6223},{"name":"Требухів","lat":50.4843,"lng":30.903,"pop":6207},{"name":"Розкішне","lat":48.4896,"lng":39.2788,"pop":6205},{"name":"Велика Білозерка","lat":47.2757,"lng":34.6846,"pop":6200},{"name":"Партеніт","lat":44.578,"lng":34.3446,"pop":6193},{"name":"Зарічне","lat":48.7325,"lng":35.3093,"pop":6191},{"name":"Svesa","lat":51.9523,"lng":33.9357,"pop":6186},{"name":"Немішаєве","lat":50.5594,"lng":30.0866,"pop":6178},{"name":"Турбів","lat":49.3408,"lng":28.7183,"pop":6166},{"name":"Ємільчине","lat":50.8719,"lng":27.802,"pop":6162},{"name":"Віньківці","lat":49.034,"lng":27.2313,"pop":6127},{"name":"Rodakove","lat":48.5589,"lng":39.0252,"pop":6122},{"name":"Новоархангельськ","lat":48.6619,"lng":30.8071,"pop":6121},{"name":"Магдалинівка","lat":48.912,"lng":34.9139,"pop":6119},{"name":"Rus’ke Pole","lat":48.0573,"lng":23.5351,"pop":6112},{"name":"Попільня","lat":49.9532,"lng":29.4526,"pop":6109},{"name":"Молочанськ","lat":47.2041,"lng":35.5979,"pop":6099},{"name":"Семенівка","lat":49.5966,"lng":33.1794,"pop":6089},{"name":"Галич","lat":49.1237,"lng":24.7275,"pop":6086},{"name":"Чутове","lat":49.7141,"lng":35.1575,"pop":6079},{"name":"Шкло","lat":49.9567,"lng":23.5441,"pop":6069},{"name":"Stavyshche","lat":49.3925,"lng":30.1923,"pop":6056},{"name":"Космач","lat":48.3311,"lng":24.8142,"pop":6054},{"name":"Благовіщенське","lat":48.3282,"lng":30.2362,"pop":6051},{"name":"Volodymyrivka","lat":47.7339,"lng":37.3882,"pop":6047},{"name":"Старобешеве","lat":47.7507,"lng":38.0304,"pop":6044},{"name":"Сутиски","lat":49.039,"lng":28.4196,"pop":6027},{"name":"Їжівці","lat":48.0253,"lng":25.6463,"pop":5987},{"name":"Старий Крим","lat":47.1611,"lng":37.4881,"pop":5977},{"name":"Доманівка","lat":47.6287,"lng":30.9865,"pop":5972},{"name":"Маяки","lat":46.4125,"lng":30.2672,"pop":5937},{"name":"Побузьке","lat":48.1595,"lng":30.5925,"pop":5897},{"name":"Novodonets’ke","lat":48.636,"lng":36.9858,"pop":5895},{"name":"Васищеве","lat":49.8347,"lng":36.3312,"pop":5862},{"name":"Муровані Курилівці","lat":48.7181,"lng":27.5308,"pop":5859},{"name":"Голованівськ","lat":48.3874,"lng":30.4595,"pop":5857},{"name":"Петрівка","lat":47.7369,"lng":35.2136,"pop":5850},{"name":"Верховина","lat":48.1554,"lng":24.8299,"pop":5829},{"name":"Мамаївці","lat":48.3472,"lng":25.8275,"pop":5818},{"name":"Чернігівка","lat":47.1945,"lng":36.2165,"pop":5813},{"name":"Turiys’k","lat":51.0872,"lng":24.5262,"pop":5808},{"name":"Bylbasivka","lat":48.8393,"lng":37.5018,"pop":5807},{"name":"Веселинове","lat":47.3569,"lng":31.2322,"pop":5785},{"name":"Озерне","lat":50.1782,"lng":28.7338,"pop":5777},{"name":"Зеленівка","lat":46.7172,"lng":32.657,"pop":5775},{"name":"Щирець","lat":49.6525,"lng":23.8579,"pop":5733},{"name":"Мала Білозерка","lat":47.2474,"lng":34.9346,"pop":5717},{"name":"Балки","lat":47.386,"lng":34.9313,"pop":5717},{"name":"Chornukhyne","lat":48.3228,"lng":38.5174,"pop":5703},{"name":"Lyubeshiv","lat":51.7651,"lng":25.5132,"pop":5702},{"name":"Бессарабське","lat":46.1876,"lng":29.1464,"pop":5692},{"name":"Водяне","lat":47.4865,"lng":34.5042,"pop":5685},{"name":"Новгородка","lat":48.3609,"lng":32.6547,"pop":5675},{"name":"Новофедорівка","lat":45.0947,"lng":33.5721,"pop":5651},{"name":"Кегичівка","lat":49.2866,"lng":35.7615,"pop":5628},{"name":"Калини","lat":48.144,"lng":23.8739,"pop":5627},{"name":"Шевченкове","lat":45.5549,"lng":29.3335,"pop":5625},{"name":"Іспас","lat":48.2988,"lng":25.2694,"pop":5625},{"name":"Димер","lat":50.7865,"lng":30.3026,"pop":5624},{"name":"Novofedorivka","lat":46.1748,"lng":32.3177,"pop":5620},{"name":"Монастириська","lat":49.0906,"lng":25.1715,"pop":5618},{"name":"Любимівка","lat":46.8105,"lng":33.5684,"pop":5611},{"name":"Велика Добронь","lat":48.4198,"lng":22.3886,"pop":5607},{"name":"Старий Самбір","lat":49.44,"lng":23.0008,"pop":5603},{"name":"Маків","lat":48.7946,"lng":26.6814,"pop":5602},{"name":"Добровеличківка","lat":48.3894,"lng":31.1804,"pop":5575},{"name":"Oster","lat":50.9497,"lng":30.8773,"pop":5564},{"name":"Моршин","lat":49.1552,"lng":23.8706,"pop":5562},{"name":"Дніпровське","lat":48.5904,"lng":34.4139,"pop":5554},{"name":"Авангард","lat":46.4687,"lng":30.6155,"pop":5554},{"name":"Піонерське","lat":44.8808,"lng":34.2019,"pop":5534},{"name":"Hlybokyy Potik","lat":48.0577,"lng":23.8959,"pop":5531},{"name":"Зоря","lat":45.9912,"lng":29.6923,"pop":5528},{"name":"Ялта","lat":46.961,"lng":37.2745,"pop":5519},{"name":"Катеринопіль","lat":48.9456,"lng":30.9719,"pop":5513},{"name":"Нова Борова","lat":50.6911,"lng":28.6319,"pop":5494},{"name":"Велика Багачка","lat":49.7982,"lng":33.7201,"pop":5488},{"name":"Mishkovo-Pohorilove","lat":46.9945,"lng":32.11,"pop":5484},{"name":"Брошнів-Осада","lat":48.9976,"lng":24.1942,"pop":5482},{"name":"Губиниха","lat":48.808,"lng":35.2583,"pop":5471},{"name":"Шумськ","lat":50.1178,"lng":26.1179,"pop":5470},{"name":"Середнэ Водяне","lat":47.9829,"lng":23.909,"pop":5465},{"name":"Velyki Kopani","lat":46.4882,"lng":32.9735,"pop":5464},{"name":"Томашпіль","lat":48.5369,"lng":28.513,"pop":5463},{"name":"Кореїз","lat":44.4315,"lng":34.084,"pop":5455},{"name":"Чуднів","lat":50.0525,"lng":28.1206,"pop":5448},{"name":"Отинія","lat":48.7379,"lng":24.8611,"pop":5444},{"name":"Просяна","lat":47.6379,"lng":34.8167,"pop":5432},{"name":"Бедевля","lat":48.005,"lng":23.6643,"pop":5423},{"name":"Мілове","lat":49.3736,"lng":40.1464,"pop":5418},{"name":"Верхній Рогачик","lat":47.2521,"lng":34.3356,"pop":5404},{"name":"Гнідин","lat":50.329,"lng":30.7106,"pop":5400},{"name":"Краснодон","lat":48.3124,"lng":39.5628,"pop":5398},{"name":"Озерне","lat":45.4056,"lng":28.6686,"pop":5370},{"name":"Горенка","lat":50.5573,"lng":30.3322,"pop":5358},{"name":"Маршинці","lat":48.2119,"lng":26.2993,"pop":5353},{"name":"Рожнів","lat":48.365,"lng":25.2284,"pop":5351},{"name":"Есхар","lat":49.7974,"lng":36.5902,"pop":5349},{"name":"Сергіївка","lat":46.0251,"lng":30.3683,"pop":5343},{"name":"Staromykhaylivka","lat":47.9926,"lng":37.5858,"pop":5333},{"name":"Тарасівці","lat":48.2056,"lng":26.3644,"pop":5330},{"name":"Савинці","lat":49.4051,"lng":37.0552,"pop":5326},{"name":"Недригайлів","lat":50.834,"lng":33.8763,"pop":5323},{"name":"Novosilky","lat":50.3122,"lng":30.0754,"pop":5316},{"name":"Вашківці","lat":48.3839,"lng":25.5175,"pop":5312},{"name":"Стара Синява","lat":49.5971,"lng":27.615,"pop":5311},{"name":"Піщанка","lat":48.2125,"lng":28.8806,"pop":5311},{"name":"Велика Михайлівка","lat":47.0785,"lng":29.8525,"pop":5303},{"name":"Рівне","lat":48.241,"lng":31.7584,"pop":5296},{"name":"Окни","lat":47.5429,"lng":29.4559,"pop":5290},{"name":"Rudky","lat":49.6535,"lng":23.4867,"pop":5278},{"name":"Опішня","lat":49.9595,"lng":34.6063,"pop":5278},{"name":"Verkhnye Vodyane","lat":48.0038,"lng":23.9599,"pop":5272},{"name":"Шатськ","lat":51.4993,"lng":23.9359,"pop":5266},{"name":"Чудей","lat":48.051,"lng":25.6221,"pop":5265},{"name":"Talalayivka","lat":50.8429,"lng":33.1417,"pop":5249},{"name":"Колінківці","lat":48.4125,"lng":26.1246,"pop":5245},{"name":"Білогір’я","lat":49.9989,"lng":26.4144,"pop":5244},{"name":"Печеніжин","lat":48.5167,"lng":24.8832,"pop":5240},{"name":"Novohuyvyns’ke","lat":50.2069,"lng":28.6921,"pop":5240},{"name":"Новомиколаївка","lat":47.9736,"lng":35.8981,"pop":5238},{"name":"Городниця","lat":50.8066,"lng":27.3142,"pop":5238},{"name":"Плахтіївка","lat":46.095,"lng":29.7189,"pop":5237},{"name":"Іза","lat":48.2152,"lng":23.3287,"pop":5237},{"name":"Велика Писарівка","lat":50.4243,"lng":35.4799,"pop":5235},{"name":"Velyka Novosilka","lat":47.8451,"lng":36.8351,"pop":5235},{"name":"Хутір-Михайлівський","lat":52.0477,"lng":33.9453,"pop":5220},{"name":"Комишуваха","lat":47.7149,"lng":35.5241,"pop":5211},{"name":"Княжичі","lat":50.4627,"lng":30.7837,"pop":5207},{"name":"Чемерівці","lat":49.0091,"lng":26.34,"pop":5200},{"name":"Олександрівка","lat":47.6901,"lng":31.2776,"pop":5200},{"name":"Липова Долина","lat":50.5643,"lng":33.7979,"pop":5199},{"name":"Давидів","lat":49.7469,"lng":24.1393,"pop":5193},{"name":"Красносілка","lat":46.6227,"lng":30.7715,"pop":5187},{"name":"Троїцьке","lat":46.5417,"lng":30.0235,"pop":5178},{"name":"Борова","lat":49.3767,"lng":37.641,"pop":5174},{"name":"Березна","lat":51.5782,"lng":31.7874,"pop":5172},{"name":"Братське","lat":47.8666,"lng":31.5753,"pop":5164},{"name":"Захарівка","lat":47.3313,"lng":29.754,"pop":5142},{"name":"Червоноармійськ","lat":50.4674,"lng":28.27,"pop":5141},{"name":"Воловець","lat":48.7109,"lng":23.1851,"pop":5128},{"name":"Чистеньке","lat":44.8815,"lng":34.0472,"pop":5126},{"name":"Pechenihy","lat":49.8717,"lng":36.9347,"pop":5112},{"name":"Старокозаче","lat":46.3358,"lng":29.9888,"pop":5108},{"name":"Городнє","lat":45.892,"lng":28.8495,"pop":5104},{"name":"Чабани","lat":50.3407,"lng":30.4236,"pop":5100},{"name":"Гоща","lat":50.6025,"lng":26.681,"pop":5084},{"name":"Короп","lat":51.5667,"lng":32.9522,"pop":5071},{"name":"Старі Кути","lat":48.2794,"lng":25.163,"pop":5068},{"name":"Romankivtsi","lat":48.4842,"lng":27.2141,"pop":5066},{"name":"Оболонь","lat":49.6039,"lng":32.8738,"pop":5063},{"name":"Стара Вижівка","lat":51.4366,"lng":24.4396,"pop":5058},{"name":"Талалаївка","lat":50.9578,"lng":31.9209,"pop":5054},{"name":"Знам’янка Друга","lat":48.7116,"lng":32.5966,"pop":5038},{"name":"Rus’ka Lozova","lat":50.1421,"lng":36.2861,"pop":5018},{"name":"Bohdanivka","lat":48.5019,"lng":36.1217,"pop":5016},{"name":"Stepanivka","lat":50.9559,"lng":34.6058,"pop":5000},{"name":"Шевченка","lat":50.5189,"lng":30.4352,"pop":5000},{"name":"Новоозерне","lat":45.3831,"lng":33.1172,"pop":4998},{"name":"Кирнасівка","lat":48.5918,"lng":28.9792,"pop":4997},{"name":"Ружин","lat":49.7218,"lng":29.2187,"pop":4993},{"name":"Hanychi","lat":48.127,"lng":23.821,"pop":4986},{"name":"Злинка","lat":48.4853,"lng":31.5423,"pop":4981},{"name":"Чечельник","lat":48.2156,"lng":29.3647,"pop":4978},{"name":"Біленьке","lat":47.627,"lng":35.0336,"pop":4977},{"name":"Industrial’ne","lat":46.3564,"lng":32.1673,"pop":4953},{"name":"Pishchane","lat":49.1238,"lng":33.3967,"pop":4931},{"name":"Куликівка","lat":51.3729,"lng":31.646,"pop":4928},{"name":"Artemovskii Ruo","lat":48.3708,"lng":37.8855,"pop":4928},{"name":"Тошківка","lat":48.783,"lng":38.5633,"pop":4926},{"name":"Вознесенка","lat":46.8688,"lng":35.463,"pop":4917},{"name":"Ярке Поле","lat":45.2058,"lng":35.1985,"pop":4914},{"name":"Білики","lat":49.2515,"lng":34.2706,"pop":4913},{"name":"Розсипне","lat":48.1497,"lng":38.5762,"pop":4911},{"name":"Петриківка","lat":48.7264,"lng":34.619,"pop":4896},{"name":"Коротич","lat":49.9474,"lng":36.0374,"pop":4889},{"name":"Брацлав","lat":48.8232,"lng":28.9383,"pop":4872},{"name":"Згурівка","lat":50.5028,"lng":31.7849,"pop":4868},{"name":"Zdovbytsya","lat":50.499,"lng":26.2472,"pop":4858},{"name":"Сваричів","lat":48.9591,"lng":24.1894,"pop":4845},{"name":"Новопокровка","lat":49.8356,"lng":36.557,"pop":4841},{"name":"Просяна","lat":48.1137,"lng":36.3717,"pop":4840},{"name":"Колочава","lat":48.4264,"lng":23.6981,"pop":4839},{"name":"Єланець","lat":47.6952,"lng":31.8522,"pop":4838},{"name":"Лужани","lat":48.3592,"lng":25.7829,"pop":4837},{"name":"Lozivs’kyy","lat":48.5624,"lng":38.882,"pop":4822},{"name":"Великий Бурлук","lat":50.0617,"lng":37.3837,"pop":4821},{"name":"Восход","lat":45.51,"lng":34.3935,"pop":4808},{"name":"Дмитрівка","lat":45.969,"lng":28.9885,"pop":4806},{"name":"Helmiaziv","lat":49.8217,"lng":31.8358,"pop":4779},{"name":"Новий Стародуб","lat":48.5149,"lng":33.1713,"pop":4777},{"name":"Уютне","lat":45.1977,"lng":33.298,"pop":4745},{"name":"Бояни","lat":48.265,"lng":26.1258,"pop":4742},{"name":"Станіслав","lat":46.5731,"lng":32.15,"pop":4726},{"name":"Олександрійське","lat":48.6044,"lng":32.9885,"pop":4718},{"name":"Брусилів","lat":50.2823,"lng":29.5201,"pop":4707},{"name":"Нижні Сірогози","lat":46.8458,"lng":34.3749,"pop":4700},{"name":"Воскресенське","lat":47.0133,"lng":32.1454,"pop":4696},{"name":"Олешник","lat":48.1653,"lng":22.9625,"pop":4696},{"name":"Клавдіэво-Тарасове","lat":50.5842,"lng":30.0113,"pop":4685},{"name":"Градениці","lat":46.5969,"lng":30.0024,"pop":4668},{"name":"Осипенко","lat":46.9184,"lng":36.8241,"pop":4667},{"name":"Терпіння","lat":46.9821,"lng":35.4226,"pop":4656},{"name":"Жовтневе","lat":50.6636,"lng":24.2492,"pop":4652},{"name":"Липини","lat":50.7645,"lng":25.4076,"pop":4647},{"name":"Павлиш","lat":48.923,"lng":33.3608,"pop":4632},{"name":"Мошни","lat":49.5275,"lng":31.7371,"pop":4629},{"name":"Завалля","lat":48.2167,"lng":30.0174,"pop":4623},{"name":"Синевир","lat":48.4928,"lng":23.6214,"pop":4623},{"name":"Fashchivka","lat":48.2739,"lng":38.6206,"pop":4613},{"name":"Міусинськ","lat":48.0775,"lng":38.9036,"pop":4603},{"name":"Klesiv","lat":51.3146,"lng":26.8949,"pop":4600},{"name":"Вільшанка","lat":48.2342,"lng":30.8728,"pop":4596},{"name":"Петрівка","lat":46.9108,"lng":30.7217,"pop":4595},{"name":"Катлабуг","lat":45.5817,"lng":28.9818,"pop":4586},{"name":"Хотів","lat":50.3307,"lng":30.4684,"pop":4569},{"name":"Укромне","lat":45.0427,"lng":34.0031,"pop":4567},{"name":"Лугини","lat":51.079,"lng":28.3988,"pop":4561},{"name":"Браїлів","lat":49.1067,"lng":28.1647,"pop":4559},{"name":"Торчин","lat":50.766,"lng":25.0006,"pop":4555},{"name":"Velykyy Rakovets’","lat":48.2737,"lng":23.1491,"pop":4545},{"name":"Zasullya","lat":49.991,"lng":33.0281,"pop":4544},{"name":"Рокосово","lat":48.2083,"lng":23.1785,"pop":4544},{"name":"Добромиль","lat":49.5719,"lng":22.7854,"pop":4537},{"name":"Пасічна","lat":48.5699,"lng":24.4154,"pop":4530},{"name":"Krynychna","lat":48.1282,"lng":38.0259,"pop":4530},{"name":"Velykyi Liubin","lat":49.7224,"lng":23.7337,"pop":4528},{"name":"Olenivka","lat":47.8272,"lng":37.6598,"pop":4513},{"name":"Кушниця","lat":48.4527,"lng":23.2617,"pop":4508},{"name":"Лиса Гора","lat":48.1706,"lng":31.1099,"pop":4502},{"name":"Horonda","lat":48.3809,"lng":22.565,"pop":4500},{"name":"Stizhkivs’ke","lat":48.1186,"lng":38.4669,"pop":4480},{"name":"Комсомольське","lat":45.019,"lng":34.0305,"pop":4447},{"name":"Пнів","lat":48.6149,"lng":24.5278,"pop":4443},{"name":"Війтівка","lat":48.4226,"lng":29.545,"pop":4434},{"name":"Хорошеве","lat":49.8517,"lng":36.2276,"pop":4432},{"name":"Компаніївка","lat":48.2502,"lng":32.2014,"pop":4429},{"name":"Топорівці","lat":48.3858,"lng":26.0909,"pop":4425},{"name":"Тельманове","lat":47.4099,"lng":38.0248,"pop":4423},{"name":"Виноградове","lat":46.3687,"lng":32.9384,"pop":4422},{"name":"Сухоіванівка","lat":47.5902,"lng":35.364,"pop":4420},{"name":"Іванівка","lat":46.7127,"lng":34.5498,"pop":4410},{"name":"Лебедин","lat":48.9628,"lng":31.5257,"pop":4402},{"name":"Рідківці","lat":48.339,"lng":26.0734,"pop":4376},{"name":"Гоголів","lat":50.5186,"lng":31.0224,"pop":4357},{"name":"Битків","lat":48.6309,"lng":24.4712,"pop":4354},{"name":"Білі Ослави","lat":48.4819,"lng":24.6985,"pop":4351},{"name":"Криничне","lat":45.5376,"lng":28.6662,"pop":4348},{"name":"Шишаки","lat":49.8757,"lng":34.0065,"pop":4347},{"name":"Popivka","lat":51.2194,"lng":33.1155,"pop":4345},{"name":"Середнє","lat":48.5401,"lng":22.5044,"pop":4336},{"name":"Заозерне","lat":45.1582,"lng":33.2787,"pop":4332},{"name":"Кобижча","lat":50.8285,"lng":31.5044,"pop":4332},{"name":"Керецьки","lat":48.4793,"lng":23.2206,"pop":4324},{"name":"Утконосівка","lat":45.4952,"lng":28.9595,"pop":4318},{"name":"Багерове","lat":45.3742,"lng":36.297,"pop":4315},{"name":"Sviatohirsk","lat":49.041,"lng":37.5719,"pop":4309},{"name":"Тернове","lat":48.0756,"lng":23.7386,"pop":4302},{"name":"Войкове","lat":45.3833,"lng":36.4374,"pop":4284},{"name":"Кача","lat":44.7764,"lng":33.5439,"pop":4282},{"name":"Lypniazhka","lat":48.4458,"lng":31.0807,"pop":4272},{"name":"Золотареве","lat":48.1825,"lng":23.4962,"pop":4266},{"name":"Драгово","lat":48.2352,"lng":23.5518,"pop":4262},{"name":"Кольчино","lat":48.4694,"lng":22.7578,"pop":4261},{"name":"Сарата","lat":46.0206,"lng":29.6644,"pop":4257},{"name":"Брилівка","lat":46.4203,"lng":33.1411,"pop":4252},{"name":"Муроване","lat":49.5214,"lng":22.9367,"pop":4251},{"name":"Сиваське","lat":46.385,"lng":34.5468,"pop":4242},{"name":"Нові Трояни","lat":45.943,"lng":28.8595,"pop":4234},{"name":"Новий Калинів","lat":49.5598,"lng":23.3061,"pop":4233},{"name":"Косівська Поляна","lat":48.0045,"lng":24.1105,"pop":4222},{"name":"Ворохта","lat":48.293,"lng":24.5639,"pop":4212},{"name":"Мирний","lat":45.3079,"lng":33.035,"pop":4209},{"name":"Sokyrnytsya","lat":48.1223,"lng":23.4,"pop":4207},{"name":"Підвиноградів","lat":48.1384,"lng":22.973,"pop":4206},{"name":"Голоби","lat":51.088,"lng":25.0088,"pop":4203},{"name":"Оброшине","lat":49.7833,"lng":23.8667,"pop":4186},{"name":"Cherkas’ka Lozova","lat":50.1095,"lng":36.221,"pop":4186},{"name":"Lyptsi","lat":50.2093,"lng":36.4209,"pop":4182},{"name":"Гришківці","lat":49.9342,"lng":28.6082,"pop":4175},{"name":"Скала-Подільська","lat":48.8501,"lng":26.2006,"pop":4174},{"name":"Mezhyrich","lat":48.5622,"lng":35.7698,"pop":4174},{"name":"Дніпряни","lat":46.7485,"lng":33.2663,"pop":4172},{"name":"Аули","lat":48.5547,"lng":34.4583,"pop":4167},{"name":"Talakivka","lat":47.185,"lng":37.7212,"pop":4160},{"name":"Мгліїв","lat":49.3369,"lng":31.517,"pop":4158},{"name":"Almazna","lat":48.5205,"lng":38.5804,"pop":4148},{"name":"Довбиш","lat":50.3713,"lng":27.9883,"pop":4147},{"name":"Сахарна Головка","lat":44.5836,"lng":33.6438,"pop":4146},{"name":"Яськи","lat":46.5097,"lng":30.0759,"pop":4145},{"name":"Знам’янка","lat":47.0167,"lng":30.2949,"pop":4134},{"name":"Тинне","lat":50.6014,"lng":26.1849,"pop":4123},{"name":"Меліоративне","lat":48.6205,"lng":35.4025,"pop":4116},{"name":"Черкаське","lat":48.7059,"lng":35.3787,"pop":4116},{"name":"Березанка","lat":46.8516,"lng":31.3853,"pop":4114},{"name":"Хирів","lat":49.5346,"lng":22.8527,"pop":4104},{"name":"Mohyliv","lat":48.8665,"lng":34.4869,"pop":4097},{"name":"Воїнка","lat":45.8699,"lng":33.9914,"pop":4089},{"name":"Stepan’","lat":51.1332,"lng":26.3059,"pop":4081},{"name":"Нова Ушиця","lat":48.837,"lng":27.2711,"pop":4075},{"name":"Дельжилер","lat":45.8397,"lng":29.4872,"pop":4071},{"name":"Дмитрівка","lat":48.7864,"lng":32.7177,"pop":4070},{"name":"Боромля","lat":50.6184,"lng":34.9704,"pop":4070},{"name":"Velyki Sorochyntsi","lat":50.0231,"lng":33.9414,"pop":4050},{"name":"Lisovi Sorochyntsi","lat":50.6892,"lng":32.3292,"pop":4050},{"name":"Kostylivka","lat":47.9933,"lng":24.2013,"pop":4049},{"name":"Зубра","lat":49.764,"lng":24.0508,"pop":4046},{"name":"Катюжанка","lat":50.806,"lng":30.1376,"pop":4046},{"name":"Долинське","lat":47.5295,"lng":29.9264,"pop":4036},{"name":"Високопілля","lat":47.4893,"lng":33.5306,"pop":4035},{"name":"Кулевча","lat":46.0332,"lng":29.9403,"pop":4032},{"name":"Кути","lat":48.2625,"lng":25.1794,"pop":4025},{"name":"Shakhove","lat":49.8028,"lng":38.4895,"pop":4021},{"name":"Банилів-Підгірний","lat":48.0833,"lng":25.4833,"pop":4012},{"name":"Вигода","lat":46.6165,"lng":30.4003,"pop":4010},{"name":"Лиман","lat":49.5936,"lng":36.4655,"pop":4008},{"name":"Лазещина","lat":48.2744,"lng":24.4156,"pop":4008},{"name":"Новомиколаївка","lat":48.5613,"lng":34.3755,"pop":4006},{"name":"Nyva Trudova","lat":47.7309,"lng":33.6216,"pop":4004},{"name":"Voronkiv","lat":50.2223,"lng":30.8997,"pop":4000},{"name":"Заболотів","lat":48.467,"lng":25.2852,"pop":3998},{"name":"Leninske","lat":47.5837,"lng":34.0152,"pop":3998},{"name":"Zaytseve","lat":48.3948,"lng":38.0294,"pop":3995},{"name":"Кольчугине","lat":44.9437,"lng":33.7886,"pop":3992},{"name":"Остриця","lat":48.2579,"lng":26.0519,"pop":3986},{"name":"Hnizdychiv","lat":49.3381,"lng":24.1066,"pop":3983},{"name":"Багате","lat":45.4072,"lng":28.9425,"pop":3977},{"name":"Вижниця","lat":48.2448,"lng":25.1811,"pop":3976},{"name":"Suprunivka","lat":49.5778,"lng":34.4404,"pop":3974},{"name":"Раденськ","lat":46.5486,"lng":32.9279,"pop":3972},{"name":"Кринички","lat":48.3744,"lng":34.462,"pop":3970},{"name":"Куликів","lat":49.9795,"lng":24.0782,"pop":3963},{"name":"Yares’ky","lat":49.8382,"lng":33.9126,"pop":3958},{"name":"Тиврів","lat":49.0121,"lng":28.5004,"pop":3953},{"name":"Hozhuly","lat":49.6091,"lng":34.4519,"pop":3951},{"name":"Бірюкове","lat":47.9563,"lng":39.7384,"pop":3951},{"name":"Zarichchya","lat":48.2849,"lng":22.9923,"pop":3939},{"name":"Рубанівка","lat":46.999,"lng":34.173,"pop":3927},{"name":"Ралівка","lat":49.5001,"lng":23.2302,"pop":3926},{"name":"Виноградівка","lat":45.679,"lng":28.5757,"pop":3923},{"name":"Василівка","lat":45.6433,"lng":28.833,"pop":3902},{"name":"Банилів","lat":48.3655,"lng":25.3504,"pop":3897},{"name":"Эрки","lat":48.9861,"lng":30.9958,"pop":3893},{"name":"Перове","lat":44.9251,"lng":34.0575,"pop":3890},{"name":"Oleksandrivka","lat":47.9207,"lng":37.5787,"pop":3885},{"name":"Рожнятів","lat":48.9397,"lng":24.1563,"pop":3874},{"name":"Дніпровка","lat":47.4284,"lng":34.6182,"pop":3873},{"name":"Щербинівка","lat":48.3949,"lng":37.791,"pop":3868},{"name":"Радушне","lat":47.8155,"lng":33.5102,"pop":3863},{"name":"Аджамка","lat":48.5397,"lng":32.5359,"pop":3859},{"name":"Онуфріївка","lat":48.8992,"lng":33.4495,"pop":3855},{"name":"Нове Давидково","lat":48.4408,"lng":22.6229,"pop":3853},{"name":"Прилиманське","lat":46.4237,"lng":30.6145,"pop":3852},{"name":"Дашів","lat":49.0035,"lng":29.4397,"pop":3852},{"name":"Молодія","lat":48.2229,"lng":26.0235,"pop":3851},{"name":"Cherkas’ke","lat":48.8343,"lng":37.3875,"pop":3851},{"name":"Vertiyivka","lat":51.1655,"lng":31.8596,"pop":3849},{"name":"Приморське","lat":47.6449,"lng":35.2907,"pop":3840},{"name":"Orzhiv","lat":50.7523,"lng":26.1191,"pop":3835},{"name":"Заріччя","lat":48.5183,"lng":24.6468,"pop":3832},{"name":"Таїрове","lat":46.359,"lng":30.6478,"pop":3830},{"name":"Novoluhans’ke","lat":48.4261,"lng":38.1751,"pop":3830},{"name":"Krasna Polyana","lat":47.5593,"lng":37.0775,"pop":3828},{"name":"Pishchane","lat":49.746,"lng":31.8429,"pop":3827},{"name":"Скалат","lat":49.4254,"lng":25.976,"pop":3814},{"name":"Черніїв","lat":48.8559,"lng":24.7156,"pop":3801},{"name":"Lazy","lat":48.0551,"lng":23.624,"pop":3801},{"name":"Старий Салтів","lat":50.0762,"lng":36.7885,"pop":3776},{"name":"Вендичани","lat":48.6152,"lng":27.7939,"pop":3768},{"name":"Куликів","lat":50.3142,"lng":24.8176,"pop":3763},{"name":"Бібрка","lat":49.6392,"lng":24.2937,"pop":3761},{"name":"Городище","lat":50.6397,"lng":26.3657,"pop":3757},{"name":"Аграрне","lat":45.016,"lng":34.0573,"pop":3754},{"name":"Sobolivka","lat":48.6153,"lng":29.4881,"pop":3752},{"name":"Локачі","lat":50.739,"lng":24.6487,"pop":3746},{"name":"Козацьке","lat":46.7855,"lng":33.35,"pop":3746},{"name":"Липецьке","lat":47.7365,"lng":29.7152,"pop":3740},{"name":"Солотвин","lat":48.7063,"lng":24.4216,"pop":3729},{"name":"Біла","lat":49.029,"lng":25.7706,"pop":3728},{"name":"Mashivka","lat":49.4441,"lng":34.8716,"pop":3721},{"name":"Мельниця-Подільська","lat":48.6082,"lng":26.1666,"pop":3716},{"name":"Матвіївка","lat":47.0739,"lng":35.1449,"pop":3716},{"name":"Комарно","lat":49.6271,"lng":23.6964,"pop":3707},{"name":"Броска","lat":45.3694,"lng":28.788,"pop":3704},{"name":"Веренчанка","lat":48.5463,"lng":25.7408,"pop":3701},{"name":"Кучурган","lat":46.7219,"lng":29.9776,"pop":3700},{"name":"Білий Колодязь","lat":50.2041,"lng":37.1127,"pop":3698},{"name":"Білолуцьк","lat":49.6972,"lng":39.0267,"pop":3695},{"name":"Мигове","lat":48.1561,"lng":25.3757,"pop":3693},{"name":"Клембівка","lat":48.3873,"lng":28.41,"pop":3692},{"name":"Першотравневе","lat":46.7434,"lng":30.9167,"pop":3689},{"name":"Теребля","lat":48.1128,"lng":23.5954,"pop":3685},{"name":"Parkhomivka","lat":50.123,"lng":35.0056,"pop":3679},{"name":"Курісове","lat":46.9695,"lng":30.9591,"pop":3676},{"name":"Уличне","lat":49.2316,"lng":23.6461,"pop":3671},{"name":"Верхня Сироватка","lat":50.829,"lng":34.9586,"pop":3669},{"name":"Вашківці","lat":48.4094,"lng":27.1322,"pop":3662},{"name":"Кам’яні Потоки","lat":48.98,"lng":33.5256,"pop":3662},{"name":"Терни","lat":50.9892,"lng":33.9707,"pop":3661},{"name":"Лази","lat":48.0667,"lng":24.2333,"pop":3660},{"name":"Олександрівка","lat":46.6115,"lng":30.8644,"pop":3660},{"name":"Азовське","lat":45.586,"lng":34.5668,"pop":3656},{"name":"Вищетарасівка","lat":47.5711,"lng":34.8811,"pop":3651},{"name":"Novosvitlivka","lat":48.4928,"lng":39.507,"pop":3648},{"name":"Порошково","lat":48.6683,"lng":22.7533,"pop":3645},{"name":"Koloniya Zastav’ye","lat":50.8167,"lng":27.0333,"pop":3642},{"name":"Silets’","lat":50.2971,"lng":24.2046,"pop":3641},{"name":"Липча","lat":48.2619,"lng":23.3839,"pop":3640},{"name":"Павлівка","lat":49.4429,"lng":28.4645,"pop":3635},{"name":"Миколаївка","lat":47.539,"lng":30.7601,"pop":3629},{"name":"Козельщина","lat":49.2173,"lng":33.8489,"pop":3628},{"name":"Yasynivka","lat":48.1318,"lng":37.9446,"pop":3622},{"name":"Ольшанське","lat":47.1724,"lng":31.765,"pop":3622},{"name":"Kurylivka","lat":49.6606,"lng":37.7079,"pop":3620},{"name":"Нересниця","lat":48.1212,"lng":23.7744,"pop":3617},{"name":"Суховоля","lat":49.8243,"lng":23.8377,"pop":3612},{"name":"Верхнячка","lat":48.8284,"lng":30.0366,"pop":3609},{"name":"Микулинці","lat":49.3919,"lng":25.6069,"pop":3604},{"name":"Новомиколаївка","lat":46.2287,"lng":32.7378,"pop":3600},{"name":"Danylivka","lat":50.2512,"lng":30.2197,"pop":3600},{"name":"Козачі Лагері","lat":46.7054,"lng":32.9819,"pop":3587},{"name":"Losynivka","lat":50.8444,"lng":31.9178,"pop":3583},{"name":"Новосільське","lat":45.3342,"lng":28.5717,"pop":3572},{"name":"Новиця","lat":48.9607,"lng":24.3331,"pop":3564},{"name":"Zhvyrka","lat":50.466,"lng":24.2673,"pop":3562},{"name":"Тисовець","lat":48.173,"lng":25.8988,"pop":3556},{"name":"Verkhnye Syn’ovydne","lat":49.1031,"lng":23.591,"pop":3555},{"name":"Osiy","lat":48.3559,"lng":23.108,"pop":3555},{"name":"Preobrazhenka","lat":47.5719,"lng":35.8167,"pop":3550},{"name":"Загвіздя","lat":48.9227,"lng":24.6636,"pop":3546},{"name":"Затишшя","lat":47.335,"lng":29.878,"pop":3538},{"name":"Slavs’ke","lat":48.8451,"lng":23.4459,"pop":3537},{"name":"Козин","lat":50.2193,"lng":30.6539,"pop":3536},{"name":"Калчева","lat":45.7361,"lng":28.8077,"pop":3536},{"name":"Срібне","lat":50.6631,"lng":32.9191,"pop":3534},{"name":"Дуліби","lat":49.2325,"lng":23.8193,"pop":3533},{"name":"Кадубівці","lat":48.5806,"lng":25.7693,"pop":3528},{"name":"Рикове","lat":46.3307,"lng":34.7486,"pop":3524},{"name":"Kryva","lat":48.0266,"lng":23.7122,"pop":3524},{"name":"Кінецьпіль","lat":48.0043,"lng":30.7866,"pop":3518},{"name":"Циблі","lat":49.9948,"lng":31.5628,"pop":3512},{"name":"Благодатне","lat":47.8812,"lng":38.4838,"pop":3512},{"name":"Donets’kyy","lat":48.6996,"lng":38.6763,"pop":3509},{"name":"Kriukivschina","lat":50.3715,"lng":30.3686,"pop":3509},{"name":"Kryukivshchyna","lat":50.3699,"lng":30.3669,"pop":3509},{"name":"Боронява","lat":48.1575,"lng":23.3901,"pop":3508},{"name":"Новобогданівка","lat":46.6457,"lng":35.0249,"pop":3506},{"name":"Чапаэвка","lat":47.4689,"lng":36.3616,"pop":3502},{"name":"Мотовилівка","lat":50.1582,"lng":30.0742,"pop":3499},{"name":"Malotaranivka","lat":48.6617,"lng":37.5102,"pop":3498},{"name":"Родникове","lat":45.043,"lng":33.9541,"pop":3492},{"name":"Комишівка","lat":45.5188,"lng":29.1238,"pop":3491},{"name":"Оржиця","lat":49.7895,"lng":32.6979,"pop":3488},{"name":"Залізничне","lat":45.7488,"lng":28.6144,"pop":3487},{"name":"Кобилецька Поляна","lat":48.0609,"lng":24.0719,"pop":3483},{"name":"Sofiyivka","lat":45.0946,"lng":34.0013,"pop":3481},{"name":"Кочеток","lat":49.88,"lng":36.7372,"pop":3481},{"name":"Кам’янка","lat":45.5639,"lng":28.8819,"pop":3478},{"name":"Nyzhnya Syrovatka","lat":50.7746,"lng":34.8292,"pop":3477},{"name":"Калинівка","lat":47.0473,"lng":32.1807,"pop":3471},{"name":"Zhovtantsi","lat":49.9913,"lng":24.2448,"pop":3469},{"name":"Цибулів","lat":49.0718,"lng":29.8446,"pop":3469},{"name":"Близнюки","lat":48.8565,"lng":36.5533,"pop":3467},{"name":"Горіле","lat":46.3718,"lng":35.3701,"pop":3464},{"name":"Rafalivka","lat":51.3118,"lng":25.9932,"pop":3462},{"name":"Гора","lat":50.3712,"lng":30.8599,"pop":3461},{"name":"Seleshchyna","lat":49.4588,"lng":34.835,"pop":3458},{"name":"Velyka Kopanya","lat":48.1932,"lng":23.1291,"pop":3457},{"name":"Гриців","lat":49.9719,"lng":27.2169,"pop":3454},{"name":"Озерна","lat":49.6282,"lng":25.3312,"pop":3451},{"name":"Костичани","lat":48.2258,"lng":26.5155,"pop":3450},{"name":"Щебетовка","lat":44.9385,"lng":35.1583,"pop":3442},{"name":"Rukshyn","lat":48.4887,"lng":26.4003,"pop":3438},{"name":"Лютенька","lat":50.2108,"lng":34.0367,"pop":3437},{"name":"Путила","lat":47.9934,"lng":25.0876,"pop":3434},{"name":"Ропча","lat":48.1144,"lng":25.768,"pop":3433},{"name":"Старі Богородчани","lat":48.8295,"lng":24.5263,"pop":3426},{"name":"Перевальне","lat":44.8484,"lng":34.3127,"pop":3426},{"name":"Novopavlivka","lat":48.1382,"lng":36.7865,"pop":3425},{"name":"Устинівка","lat":47.9562,"lng":32.5394,"pop":3424},{"name":"Lopatyn","lat":50.2196,"lng":24.847,"pop":3418},{"name":"Соборне","lat":46.2251,"lng":29.2002,"pop":3410},{"name":"Yuzhna Lomuvatka","lat":48.4383,"lng":38.5312,"pop":3408},{"name":"Неліпино","lat":48.5595,"lng":23.0308,"pop":3403},{"name":"Пуща-Водиця","lat":50.5386,"lng":30.3557,"pop":3400},{"name":"Dilove","lat":47.9356,"lng":24.1713,"pop":3400},{"name":"Великі Бірки","lat":49.5246,"lng":25.7549,"pop":3395},{"name":"Солонка","lat":49.7562,"lng":24.0103,"pop":3391},{"name":"Ободівка","lat":48.4053,"lng":29.2475,"pop":3378},{"name":"Вербівка","lat":49.4167,"lng":35.5333,"pop":3377},{"name":"Вільхівці","lat":48.1066,"lng":23.7484,"pop":3374},{"name":"Тишківка","lat":48.4967,"lng":30.9423,"pop":3368},{"name":"Мізоч","lat":50.3996,"lng":26.1417,"pop":3365},{"name":"Каїри","lat":46.9461,"lng":33.7052,"pop":3364},{"name":"Чорнянка","lat":46.6517,"lng":33.3596,"pop":3363},{"name":"Приборжавське","lat":48.3449,"lng":23.225,"pop":3359},{"name":"Перегонівка","lat":48.5322,"lng":30.5209,"pop":3354},{"name":"Заводське","lat":48.9989,"lng":25.8537,"pop":3352},{"name":"Стеблів","lat":49.4016,"lng":31.0956,"pop":3350},{"name":"Урожайне","lat":45.0452,"lng":34.1351,"pop":3350},{"name":"Великоплоске","lat":47.0132,"lng":29.6709,"pop":3344},{"name":"Давидівка","lat":48.138,"lng":25.5468,"pop":3344},{"name":"Тур'я Пасіка","lat":48.6851,"lng":22.6837,"pop":3340},{"name":"Тур’ ї Ремети","lat":48.7155,"lng":22.5908,"pop":3340},{"name":"Oleksandrivka","lat":48.7079,"lng":36.9165,"pop":3338},{"name":"Строгонівка","lat":44.9497,"lng":34.1792,"pop":3337},{"name":"Machukhy","lat":49.5232,"lng":34.4335,"pop":3337},{"name":"Углове","lat":44.8215,"lng":33.6045,"pop":3334},{"name":"Манява","lat":48.6549,"lng":24.371,"pop":3333},{"name":"Leninske","lat":48.0713,"lng":39.5533,"pop":3333},{"name":"Chapaievka","lat":49.556,"lng":32.0977,"pop":3331},{"name":"Михайлівка","lat":45.1133,"lng":33.6107,"pop":3325},{"name":"Владиславівка","lat":45.1665,"lng":35.3727,"pop":3324},{"name":"Bila","lat":49.5872,"lng":25.5774,"pop":3324},{"name":"Малокатеринівка","lat":47.6557,"lng":35.2573,"pop":3320},{"name":"Зачепилівка","lat":49.1974,"lng":35.242,"pop":3317},{"name":"Гвізд","lat":48.6815,"lng":24.546,"pop":3311},{"name":"Виноградівка","lat":45.8282,"lng":29.3823,"pop":3306},{"name":"Журавно","lat":49.26,"lng":24.2819,"pop":3302},{"name":"Лиманське","lat":45.4295,"lng":28.4133,"pop":3302},{"name":"Старичі","lat":49.98,"lng":23.5585,"pop":3293},{"name":"Меденичі","lat":49.4269,"lng":23.7496,"pop":3292},{"name":"Кірове","lat":47.6531,"lng":35.6951,"pop":3291},{"name":"Великий Ключів","lat":48.4644,"lng":24.942,"pop":3290},{"name":"Дворічна","lat":49.8502,"lng":37.6826,"pop":3290},{"name":"Гончарівське","lat":51.2989,"lng":30.9198,"pop":3289},{"name":"Зарожани","lat":48.4155,"lng":26.2989,"pop":3284},{"name":"Небилів","lat":48.8151,"lng":24.2192,"pop":3282},{"name":"Саджавка","lat":48.5673,"lng":24.7997,"pop":3278},{"name":"Popivka","lat":49.4516,"lng":35.178,"pop":3277},{"name":"Глухівці","lat":49.7715,"lng":28.7298,"pop":3277},{"name":"Petrivs’ke","lat":49.1742,"lng":36.8955,"pop":3275},{"name":"Zuyivka","lat":48.0601,"lng":38.249,"pop":3269},{"name":"Rohan’","lat":49.9029,"lng":36.4812,"pop":3262},{"name":"Страбичово","lat":48.3899,"lng":22.5494,"pop":3255},{"name":"Іванівці","lat":48.4885,"lng":27.0336,"pop":3253},{"name":"Нові Білокоровичі","lat":51.1155,"lng":28.0546,"pop":3251},{"name":"Добрянка","lat":52.0624,"lng":31.1826,"pop":3250},{"name":"Товсте","lat":48.8459,"lng":25.7256,"pop":3248},{"name":"Рихтичі","lat":49.3875,"lng":23.5634,"pop":3244},{"name":"Скороходове","lat":49.7744,"lng":35.0741,"pop":3238},{"name":"Піщана","lat":48.1292,"lng":29.7309,"pop":3234},{"name":"Ямниця","lat":48.9862,"lng":24.7077,"pop":3223},{"name":"Chervonyy Oskil","lat":49.1785,"lng":37.426,"pop":3217},{"name":"Hlynne","lat":51.5264,"lng":27.4128,"pop":3215},{"name":"Vil’khivtsi-Lazy","lat":48.1281,"lng":23.6923,"pop":3215},{"name":"Вишнівець","lat":49.9009,"lng":25.7438,"pop":3211},{"name":"Коропець","lat":48.9325,"lng":25.1777,"pop":3206},{"name":"Kyrykivka","lat":50.3641,"lng":35.1149,"pop":3202},{"name":"Суворовське","lat":45.2517,"lng":33.3719,"pop":3200},{"name":"Лопухів","lat":48.3699,"lng":23.9714,"pop":3199},{"name":"Крижанівка","lat":46.5628,"lng":30.795,"pop":3195},{"name":"Bilorichens’kyy","lat":48.447,"lng":39.1023,"pop":3194},{"name":"Динівці","lat":48.3177,"lng":26.2945,"pop":3193},{"name":"Новоселиця","lat":50.0703,"lng":27.5195,"pop":3185},{"name":"Новоселівське","lat":45.4428,"lng":33.5979,"pop":3179},{"name":"Малодолинське","lat":46.3564,"lng":30.6311,"pop":3177},{"name":"Дмитрівка","lat":47.9361,"lng":38.9366,"pop":3170},{"name":"Rayhorodok","lat":48.9021,"lng":37.7247,"pop":3166},{"name":"Шипинці","lat":48.376,"lng":25.7502,"pop":3160},{"name":"П'ятипілля","lat":48.0159,"lng":38.0998,"pop":3158},{"name":"Holovne","lat":51.3366,"lng":24.0794,"pop":3155},{"name":"Богдан","lat":48.0424,"lng":24.3398,"pop":3155},{"name":"Shalanky","lat":48.2275,"lng":22.882,"pop":3152},{"name":"Шевченкове","lat":46.8625,"lng":32.2002,"pop":3150},{"name":"Приютівка","lat":48.7293,"lng":33.0662,"pop":3148},{"name":"Холми","lat":51.8714,"lng":32.5973,"pop":3146},{"name":"Ракошино","lat":48.4663,"lng":22.5969,"pop":3145},{"name":"Дмитрівка","lat":45.6419,"lng":29.3722,"pop":3144},{"name":"Пересадівка","lat":47.1135,"lng":32.1908,"pop":3141},{"name":"Sentyanivka","lat":48.6704,"lng":38.7541,"pop":3140},{"name":"Розівка","lat":47.3954,"lng":37.0708,"pop":3140},{"name":"Rozkishna","lat":49.369,"lng":30.194,"pop":3140},{"name":"Borshchivka","lat":49.5029,"lng":36.9705,"pop":3139},{"name":"Вилок","lat":48.1103,"lng":22.8389,"pop":3136},{"name":"Malyy Rakovets’","lat":48.2617,"lng":23.2076,"pop":3127},{"name":"Химчин","lat":48.3796,"lng":25.1485,"pop":3124},{"name":"Гать","lat":48.3215,"lng":22.6381,"pop":3122},{"name":"Новоселиця","lat":48.1661,"lng":23.7577,"pop":3120},{"name":"Лазурне","lat":46.0829,"lng":32.5256,"pop":3119},{"name":"Петродолинське","lat":46.4338,"lng":30.4038,"pop":3118},{"name":"Uhlya","lat":48.1508,"lng":23.628,"pop":3117},{"name":"Kam”yane","lat":48.1683,"lng":39.1654,"pop":3116},{"name":"Кінські Роздори","lat":47.4118,"lng":36.4227,"pop":3113},{"name":"Пришиб","lat":47.2561,"lng":35.3243,"pop":3110},{"name":"Нове Місто","lat":48.9811,"lng":29.8281,"pop":3109},{"name":"Побєдне","lat":45.7011,"lng":34.4481,"pop":3108},{"name":"Кошелеве","lat":48.2384,"lng":23.3347,"pop":3101},{"name":"Розвадів","lat":49.5031,"lng":23.9582,"pop":3098},{"name":"Шолохове","lat":47.6916,"lng":33.9897,"pop":3097},{"name":"Lotykove","lat":48.5293,"lng":38.9183,"pop":3096},{"name":"Красна","lat":48.5746,"lng":24.696,"pop":3096},{"name":"Суботці","lat":48.6556,"lng":32.5156,"pop":3095},{"name":"Онок","lat":48.2245,"lng":23.0038,"pop":3094},{"name":"Тернова","lat":50.1923,"lng":36.6748,"pop":3091},{"name":"Угринів","lat":48.9555,"lng":24.694,"pop":3090},{"name":"Поштове","lat":44.8354,"lng":33.9616,"pop":3086},{"name":"Дударків","lat":50.445,"lng":30.9494,"pop":3081},{"name":"Ржавинці","lat":48.5066,"lng":26.0772,"pop":3079},{"name":"Стецева","lat":48.5264,"lng":25.5741,"pop":3076},{"name":"Лисичово","lat":48.4952,"lng":23.2824,"pop":3068},{"name":"Tarasivka","lat":48.2087,"lng":23.8093,"pop":3067},{"name":"Красноторка","lat":48.6854,"lng":37.5303,"pop":3061},{"name":"Олика","lat":50.7227,"lng":25.8121,"pop":3060},{"name":"Білоусівка","lat":48.5356,"lng":27.3393,"pop":3057},{"name":"Березники","lat":48.5111,"lng":23.2219,"pop":3055},{"name":"Колоденка","lat":50.5856,"lng":26.316,"pop":3052},{"name":"Фрунзе","lat":45.0269,"lng":33.6296,"pop":3051},{"name":"Стара Некрасівка","lat":45.3372,"lng":28.9232,"pop":3050},{"name":"Оріхове","lat":45.1294,"lng":33.6318,"pop":3049},{"name":"Вільховець","lat":49.0363,"lng":30.8877,"pop":3048},{"name":"Орлівка","lat":45.3166,"lng":28.4405,"pop":3047},{"name":"Чернятин","lat":48.6603,"lng":25.4483,"pop":3046},{"name":"Nyzhnye Selyshche","lat":48.1991,"lng":23.4476,"pop":3044},{"name":"Луків","lat":51.0521,"lng":25.4006,"pop":3043},{"name":"Калинове","lat":49.3804,"lng":30.4414,"pop":3042},{"name":"Уланів","lat":49.6951,"lng":28.133,"pop":3038},{"name":"Malomykhaylivka","lat":48.0869,"lng":36.4143,"pop":3036},{"name":"Волока","lat":48.1971,"lng":25.9367,"pop":3035},{"name":"Бобрик Перший","lat":47.9166,"lng":30.1785,"pop":3034},{"name":"Петриків","lat":49.5278,"lng":25.581,"pop":3033},{"name":"Шалигине","lat":51.5717,"lng":34.1217,"pop":3031},{"name":"Плавні","lat":45.3963,"lng":28.5824,"pop":3029},{"name":"Шилівці","lat":48.4262,"lng":26.2027,"pop":3028},{"name":"Загнітків","lat":48.0475,"lng":28.8869,"pop":3024},{"name":"Bila Tserkva","lat":47.9498,"lng":23.8957,"pop":3024},{"name":"Спаське","lat":48.6577,"lng":35.0497,"pop":3017},{"name":"Журавка","lat":50.4811,"lng":32.5949,"pop":3012},{"name":"Копашново","lat":48.2176,"lng":23.4837,"pop":3010},{"name":"Приозерне","lat":45.2699,"lng":36.334,"pop":3005},{"name":"Нижні Петрівці","lat":48.0305,"lng":25.7252,"pop":3004},{"name":"Пороги","lat":48.6849,"lng":24.2516,"pop":3004},{"name":"Petrivka-Romens’ka","lat":50.3706,"lng":33.749,"pop":3003},{"name":"Трипілля","lat":50.118,"lng":30.7814,"pop":3000},{"name":"Новоселівка","lat":46.0024,"lng":29.6146,"pop":3000},{"name":"Вари","lat":48.1228,"lng":22.7088,"pop":2998},{"name":"Скалисте","lat":44.8169,"lng":33.9779,"pop":2997},{"name":"Чумалеве","lat":48.1906,"lng":23.5467,"pop":2994},{"name":"Vyshen’ky","lat":50.2994,"lng":30.7195,"pop":2992},{"name":"Коровія","lat":48.224,"lng":25.9719,"pop":2992},{"name":"Котелеве","lat":48.2835,"lng":26.3582,"pop":2991},{"name":"Kalynove","lat":48.5666,"lng":38.5192,"pop":2988},{"name":"Красний Кут","lat":48.2014,"lng":38.7976,"pop":2983},{"name":"Кулиничі","lat":49.9818,"lng":36.3828,"pop":2981},{"name":"Svitlohirs’ke","lat":48.8897,"lng":34.0712,"pop":2980},{"name":"Спас","lat":48.8872,"lng":24.0629,"pop":2976},{"name":"Добре","lat":44.8663,"lng":34.2266,"pop":2976},{"name":"Тимошівка","lat":47.1828,"lng":35.1085,"pop":2975},{"name":"Шпиків","lat":48.7841,"lng":28.5636,"pop":2974},{"name":"Орлянське","lat":47.3339,"lng":35.0987,"pop":2974},{"name":"Минай","lat":48.5888,"lng":22.275,"pop":2973},{"name":"Кислиця","lat":45.408,"lng":29.0362,"pop":2973},{"name":"Buhayivka","lat":48.4177,"lng":38.8587,"pop":2972},{"name":"Горбова","lat":48.2,"lng":26.1667,"pop":2969},{"name":"Липецька Поляна","lat":48.3312,"lng":23.3585,"pop":2965},{"name":"Чорнолізці","lat":48.8322,"lng":24.8988,"pop":2965},{"name":"Саф’яни","lat":45.4027,"lng":28.8777,"pop":2962},{"name":"Красна","lat":48.2298,"lng":23.9444,"pop":2960},{"name":"Карапиші","lat":49.6442,"lng":30.7961,"pop":2960},{"name":"Горінчово","lat":48.2696,"lng":23.4339,"pop":2959},{"name":"Rakiv Lis","lat":51.6217,"lng":24.9243,"pop":2958},{"name":"Обертин","lat":48.6995,"lng":25.169,"pop":2957},{"name":"Вільшана","lat":49.2171,"lng":31.2177,"pop":2956},{"name":"Кам'яна","lat":48.2329,"lng":25.8503,"pop":2956},{"name":"Петровірівка","lat":47.2287,"lng":30.3314,"pop":2954},{"name":"Сенча","lat":50.2548,"lng":33.346,"pop":2953},{"name":"Ременів","lat":49.9524,"lng":24.2092,"pop":2953},{"name":"Слобода","lat":51.1981,"lng":33.6069,"pop":2949},{"name":"Тисменичани","lat":48.771,"lng":24.6645,"pop":2944},{"name":"Мирне","lat":46.9503,"lng":35.4415,"pop":2944},{"name":"Blahovishchenka","lat":47.4532,"lng":34.8321,"pop":2941},{"name":"Семиполки","lat":50.7263,"lng":30.9344,"pop":2939},{"name":"Sadky","lat":49.0054,"lng":33.4718,"pop":2939},{"name":"Чулаківка","lat":46.3584,"lng":32.3511,"pop":2938},{"name":"Ivanopil’","lat":49.8606,"lng":28.2156,"pop":2937},{"name":"Birky","lat":49.7202,"lng":36.0578,"pop":2936},{"name":"Сільце","lat":48.2908,"lng":22.9907,"pop":2934},{"name":"Петранка","lat":48.9053,"lng":24.3062,"pop":2929},{"name":"Радча","lat":48.8508,"lng":24.656,"pop":2927},{"name":"Лисець","lat":48.8691,"lng":24.609,"pop":2926},{"name":"Vepryk","lat":50.3701,"lng":34.176,"pop":2916},{"name":"Батьово","lat":48.3642,"lng":22.3989,"pop":2914},{"name":"Ішунь","lat":45.924,"lng":33.8236,"pop":2913},{"name":"Мала Токмачка","lat":47.5356,"lng":35.9022,"pop":2912},{"name":"Гладківка","lat":46.4111,"lng":32.6405,"pop":2912},{"name":"Крива","lat":48.1723,"lng":23.2365,"pop":2911},{"name":"Borzhavs’ke","lat":48.2556,"lng":23.0317,"pop":2909},{"name":"Бехтери","lat":46.2492,"lng":32.2953,"pop":2909},{"name":"Народичі","lat":51.203,"lng":29.0834,"pop":2907},{"name":"Серебрія","lat":48.4556,"lng":27.7163,"pop":2906},{"name":"Chaplyne","lat":48.1283,"lng":36.2301,"pop":2905},{"name":"Урзуф","lat":46.9149,"lng":37.1043,"pop":2904},{"name":"Мурафа","lat":50.0468,"lng":35.3292,"pop":2903},{"name":"Красне","lat":46.1315,"lng":32.7715,"pop":2898},{"name":"Станівці","lat":48.0833,"lng":26.0667,"pop":2897},{"name":"Молодіжне","lat":46.3121,"lng":30.6155,"pop":2897},{"name":"Маркова","lat":48.6839,"lng":24.4258,"pop":2896},{"name":"Yur”yivka","lat":48.5045,"lng":38.9784,"pop":2893},{"name":"Rozdil","lat":49.462,"lng":24.0624,"pop":2892},{"name":"Юрківка","lat":49.0108,"lng":31.088,"pop":2887},{"name":"Березово","lat":48.2997,"lng":23.4789,"pop":2885},{"name":"Stare Selo","lat":51.6132,"lng":27.1305,"pop":2880},{"name":"Первомайське","lat":45.0619,"lng":35.1639,"pop":2880},{"name":"Садове","lat":45.3104,"lng":34.6526,"pop":2874},{"name":"Миропілля","lat":51.023,"lng":35.2623,"pop":2873},{"name":"Киселів","lat":48.5802,"lng":25.657,"pop":2873},{"name":"Семенівка","lat":46.8928,"lng":35.4105,"pop":2869},{"name":"Nova Basan’","lat":50.5678,"lng":31.5112,"pop":2869},{"name":"Малокаховка","lat":46.7829,"lng":33.4466,"pop":2862},{"name":"Leninske","lat":46.7183,"lng":35.2643,"pop":2859},{"name":"Холмське","lat":45.7591,"lng":29.2276,"pop":2856},{"name":"Тернавка","lat":48.1211,"lng":26.2248,"pop":2852},{"name":"Новий Яричів","lat":49.9046,"lng":24.3047,"pop":2841},{"name":"Курахівка","lat":50.3315,"lng":24.1954,"pop":2820},{"name":"Verkhn’otorets’ke","lat":48.224,"lng":37.8734,"pop":2819},{"name":"Низи","lat":50.7828,"lng":34.7844,"pop":2819},{"name":"Бритівка","lat":46.1741,"lng":30.2801,"pop":2818},{"name":"Миколаївка","lat":44.9621,"lng":33.6106,"pop":2817},{"name":"Koktebel’","lat":44.9646,"lng":35.2477,"pop":2807},{"name":"Цебрикове","lat":47.1464,"lng":30.1079,"pop":2806},{"name":"Чорногузи","lat":48.2713,"lng":25.2289,"pop":2804},{"name":"Розтоки","lat":48.0662,"lng":24.2905,"pop":2803},{"name":"Shevchenkove","lat":49.1918,"lng":31.0899,"pop":2802},{"name":"Городок","lat":50.5948,"lng":29.4607,"pop":2801},{"name":"Чапаэве","lat":49.3669,"lng":35.8694,"pop":2800},{"name":"Смига","lat":50.2384,"lng":25.7647,"pop":2800},{"name":"Mykhaylo-Kotsyubyns’ke","lat":51.4512,"lng":31.0782,"pop":2797},{"name":"Володимирівка","lat":47.524,"lng":32.9266,"pop":2793},{"name":"Горішні Шерівці","lat":48.3976,"lng":25.9478,"pop":2793},{"name":"Дерцен","lat":48.3365,"lng":22.6826,"pop":2793},{"name":"Єзупіль","lat":49.0415,"lng":24.781,"pop":2792},{"name":"Баловне","lat":47.0511,"lng":31.8862,"pop":2792},{"name":"Недобоївці","lat":48.4318,"lng":26.3672,"pop":2789},{"name":"Оратів","lat":49.1859,"lng":29.5289,"pop":2786},{"name":"Velyka Kostromka","lat":47.5339,"lng":33.7218,"pop":2784},{"name":"Holubyne","lat":48.5694,"lng":22.9718,"pop":2781},{"name":"Ближнє","lat":45.0569,"lng":35.3306,"pop":2779},{"name":"Новоандріївка","lat":45.199,"lng":34.0938,"pop":2778},{"name":"Красна Зорька","lat":45.1343,"lng":34.0401,"pop":2777},{"name":"Покровське","lat":47.5521,"lng":34.1521,"pop":2774},{"name":"Ромодан","lat":49.9913,"lng":33.3263,"pop":2771},{"name":"Криве Озеро Друге","lat":47.9304,"lng":30.3488,"pop":2766},{"name":"Laryne","lat":47.8889,"lng":37.9281,"pop":2766},{"name":"Великі Береги","lat":48.2317,"lng":22.7459,"pop":2766},{"name":"Червоне","lat":49.962,"lng":28.8709,"pop":2763},{"name":"Первомайське","lat":47.0427,"lng":32.44,"pop":2763},{"name":"Андріївка","lat":47.0935,"lng":36.5895,"pop":2755},{"name":"Nyzhnii Verbizh","lat":48.5068,"lng":25.0015,"pop":2751},{"name":"Полігон","lat":46.9778,"lng":32.129,"pop":2750},{"name":"Чорна Тиса","lat":48.3067,"lng":24.3338,"pop":2746},{"name":"Murafa","lat":48.7699,"lng":28.2143,"pop":2739},{"name":"Pidbuzh","lat":49.3319,"lng":23.2512,"pop":2739},{"name":"Кам’янське","lat":45.8191,"lng":29.2589,"pop":2739},{"name":"Імстичово","lat":48.2958,"lng":23.1946,"pop":2729},{"name":"Стройне","lat":48.5241,"lng":23.038,"pop":2726},{"name":"Hlybochytsya","lat":50.2799,"lng":28.7779,"pop":2726},{"name":"Кричово","lat":48.191,"lng":23.571,"pop":2723},{"name":"Добрянське","lat":48.066,"lng":23.7147,"pop":2714},{"name":"Раухівка","lat":47.1667,"lng":30.8177,"pop":2711},{"name":"Shramkivka","lat":50.1375,"lng":32.1257,"pop":2709},{"name":"Каракурт","lat":45.6406,"lng":28.7051,"pop":2707},{"name":"Долинське","lat":45.4688,"lng":28.3255,"pop":2705},{"name":"Nehrovets’","lat":48.4541,"lng":23.6492,"pop":2700},{"name":"Асканія-Нова","lat":46.4541,"lng":33.8713,"pop":2696},{"name":"Підгайці","lat":49.2678,"lng":25.1277,"pop":2688},{"name":"Амурське","lat":45.2782,"lng":34.1282,"pop":2687},{"name":"Petrushiv","lat":48.0762,"lng":23.7793,"pop":2687},{"name":"Прилісне","lat":51.376,"lng":25.5227,"pop":2685},{"name":"Цвіточне","lat":45.0866,"lng":34.3852,"pop":2681},{"name":"Коломак","lat":49.8408,"lng":35.3024,"pop":2681},{"name":"Фонтани","lat":44.8972,"lng":34.073,"pop":2681},{"name":"Музиківка","lat":46.7528,"lng":32.5628,"pop":2672},{"name":"Чернівці","lat":48.541,"lng":28.1246,"pop":2672},{"name":"Купка","lat":48.048,"lng":25.7817,"pop":2671},{"name":"Желябовка","lat":45.3988,"lng":34.7578,"pop":2669},{"name":"Журавки","lat":45.1263,"lng":35.2151,"pop":2666},{"name":"Привільне","lat":47.4934,"lng":32.297,"pop":2659},{"name":"Ванчиківці","lat":48.2157,"lng":26.4492,"pop":2656},{"name":"Vonihove","lat":48.0726,"lng":23.5243,"pop":2654},{"name":"Мартинівське","lat":47.4708,"lng":31.2773,"pop":2654},{"name":"Щорськ","lat":48.3569,"lng":34.1121,"pop":2651},{"name":"Котловина","lat":45.5069,"lng":28.5744,"pop":2643},{"name":"Безіменне","lat":47.1072,"lng":37.9397,"pop":2638},{"name":"Пантаївка","lat":48.6769,"lng":32.898,"pop":2633},{"name":"Ключарки","lat":48.4186,"lng":22.6429,"pop":2632},{"name":"Введенка","lat":49.8237,"lng":36.5031,"pop":2628},{"name":"Дачне","lat":44.8845,"lng":34.9833,"pop":2628},{"name":"Storozhnytsya","lat":48.604,"lng":22.2327,"pop":2623},{"name":"Войнилів","lat":49.1289,"lng":24.492,"pop":2619},{"name":"Нагірне","lat":45.43,"lng":28.4485,"pop":2611},{"name":"Лукавці","lat":48.2022,"lng":25.4123,"pop":2608},{"name":"Кострижівка","lat":48.6546,"lng":25.7092,"pop":2606},{"name":"Сімеїз","lat":44.4065,"lng":34.007,"pop":2604},{"name":"Luhans’ke","lat":48.4447,"lng":38.2552,"pop":2604},{"name":"Саксагань","lat":48.3442,"lng":33.8417,"pop":2603},{"name":"Mala Rohan’","lat":49.9378,"lng":36.4894,"pop":2603},{"name":"Новоамвросіївське","lat":47.8332,"lng":38.5005,"pop":2601},{"name":"Kurakhivka","lat":48.0306,"lng":37.3725,"pop":2600},{"name":"Латівка","lat":46.5656,"lng":30.7152,"pop":2600},{"name":"Привітне","lat":45.1197,"lng":35.0596,"pop":2592},{"name":"Партизанське","lat":48.5879,"lng":34.8147,"pop":2591},{"name":"Мамалига","lat":48.257,"lng":26.5815,"pop":2589},{"name":"Bohdanivka","lat":50.6272,"lng":30.9137,"pop":2585},{"name":"Холодна Балка","lat":46.6063,"lng":30.5836,"pop":2582},{"name":"Zahattya","lat":48.398,"lng":22.9504,"pop":2578},{"name":"Михайлівка","lat":45.9496,"lng":29.6966,"pop":2577},{"name":"Стара Збур’ївка","lat":46.4723,"lng":32.4237,"pop":2572},{"name":"Орджонікідзе","lat":44.964,"lng":35.3558,"pop":2572},{"name":"Хлібодарське","lat":46.4845,"lng":30.5937,"pop":2570},{"name":"Сэдове","lat":47.0787,"lng":38.1537,"pop":2569},{"name":"Нанкове","lat":48.1977,"lng":23.4336,"pop":2567},{"name":"Авіаторське","lat":48.3684,"lng":35.0803,"pop":2567},{"name":"Мазанка","lat":45.0055,"lng":34.2558,"pop":2564},{"name":"Чорноморка","lat":46.6406,"lng":31.4982,"pop":2564},{"name":"Павлівка","lat":45.961,"lng":29.4886,"pop":2556},{"name":"Surs’ko-Mykhaylivka","lat":48.2744,"lng":34.7266,"pop":2552},{"name":"Kyyinka","lat":51.4533,"lng":31.1937,"pop":2552},{"name":"Kurylivka","lat":48.5762,"lng":34.6054,"pop":2551},{"name":"Золоте Поле","lat":45.1277,"lng":34.9915,"pop":2543},{"name":"Залізці","lat":49.8007,"lng":25.3839,"pop":2540},{"name":"Ukrayinka","lat":44.8865,"lng":34.1407,"pop":2539},{"name":"Капітанівка","lat":48.9202,"lng":31.7163,"pop":2539},{"name":"Нехвороща","lat":49.151,"lng":34.7227,"pop":2538},{"name":"Кремидівка","lat":46.7335,"lng":30.7847,"pop":2533},{"name":"Осички","lat":48.1329,"lng":30.0282,"pop":2531},{"name":"Bohodukhivka","lat":49.747,"lng":32.3598,"pop":2521},{"name":"Новоселиця","lat":48.4335,"lng":26.989,"pop":2520},{"name":"Куйбишеве","lat":44.629,"lng":33.8689,"pop":2520},{"name":"Скворцове","lat":45.0754,"lng":33.8208,"pop":2517},{"name":"Главані","lat":45.8447,"lng":29.195,"pop":2510},{"name":"Pisky-Rad’kivs’ki","lat":49.2667,"lng":37.6067,"pop":2507},{"name":"Старі Бросківці","lat":48.2391,"lng":25.7467,"pop":2503},{"name":"Гоголеве","lat":49.9211,"lng":33.8224,"pop":2503},{"name":"Staryy Bilous","lat":51.4918,"lng":31.2125,"pop":2502},{"name":"Потелич","lat":50.208,"lng":23.5467,"pop":2500},{"name":"Приколотне","lat":50.1627,"lng":37.3452,"pop":2499},{"name":"Табаки","lat":45.7267,"lng":28.6069,"pop":2498},{"name":"Мар’янівка","lat":45.4463,"lng":34.2947,"pop":2494},{"name":"Сімейкине","lat":48.3264,"lng":39.5337,"pop":2493},{"name":"Чорнухи","lat":50.2682,"lng":32.936,"pop":2491},{"name":"Khomutets’","lat":50.0611,"lng":33.7204,"pop":2477},{"name":"Гандрабури","lat":47.7173,"lng":29.8681,"pop":2477},{"name":"Ліснівка","lat":45.1535,"lng":33.6189,"pop":2476},{"name":"Demydivka","lat":50.4278,"lng":25.3357,"pop":2474},{"name":"Урало-Кавказ","lat":48.3211,"lng":39.803,"pop":2472},{"name":"Неполоківці","lat":48.3881,"lng":25.6353,"pop":2471},{"name":"Панка","lat":48.1743,"lng":25.648,"pop":2469},{"name":"Рокитне","lat":48.3298,"lng":26.1904,"pop":2468},{"name":"Вовковинці","lat":49.2066,"lng":27.6556,"pop":2458},{"name":"Олександрівка","lat":45.8907,"lng":28.9475,"pop":2457},{"name":"Маринівка","lat":47.776,"lng":30.8875,"pop":2450},{"name":"Tereshky","lat":49.5548,"lng":34.6106,"pop":2450},{"name":"Kytayhorod","lat":48.9005,"lng":34.4473,"pop":2445},{"name":"Мирне","lat":46.4681,"lng":30.3714,"pop":2443},{"name":"Придніпровське","lat":47.6197,"lng":34.4587,"pop":2443},{"name":"Tomashhorod","lat":51.3698,"lng":27.0683,"pop":2442},{"name":"Rudenkivka","lat":49.3253,"lng":34.4049,"pop":2440},{"name":"Подвірне","lat":48.2985,"lng":26.6202,"pop":2440},{"name":"Seleznivka","lat":48.3927,"lng":38.7876,"pop":2438},{"name":"Безруки","lat":50.174,"lng":36.1203,"pop":2436},{"name":"Оріхівка","lat":45.8068,"lng":28.9034,"pop":2426},{"name":"Chishky","lat":49.9913,"lng":24.946,"pop":2426},{"name":"Іванівка","lat":46.9746,"lng":30.4694,"pop":2424},{"name":"Новосільське","lat":45.5036,"lng":32.7225,"pop":2424},{"name":"Дулове","lat":48.1435,"lng":23.5868,"pop":2420},{"name":"Protopopivka","lat":48.7456,"lng":33.0419,"pop":2417},{"name":"Дунаївці","lat":49.0212,"lng":26.8408,"pop":2417},{"name":"Shyroke","lat":48.2206,"lng":23.1133,"pop":2411},{"name":"Horshchyk","lat":50.8998,"lng":28.3026,"pop":2406},{"name":"Батурин","lat":51.3426,"lng":32.8798,"pop":2406},{"name":"Коритне","lat":48.3346,"lng":25.3891,"pop":2396},{"name":"Морське","lat":44.8259,"lng":34.8031,"pop":2394},{"name":"Стара Жадова","lat":48.2,"lng":25.5167,"pop":2392},{"name":"Ларжанка","lat":45.3549,"lng":28.7147,"pop":2386},{"name":"Horodyshche","lat":48.3218,"lng":38.6394,"pop":2386},{"name":"Коблеве","lat":46.665,"lng":31.208,"pop":2385},{"name":"Брід","lat":48.3481,"lng":23.0049,"pop":2384},{"name":"Оршівці","lat":48.4196,"lng":25.6307,"pop":2382},{"name":"Велика Бурімка","lat":49.6113,"lng":32.6413,"pop":2380},{"name":"Селятин","lat":47.8674,"lng":25.1989,"pop":2380},{"name":"Chervona Znamianka","lat":49.1546,"lng":33.4069,"pop":2379},{"name":"Берегове","lat":45.0947,"lng":35.4338,"pop":2377},{"name":"П’ятихатка","lat":45.3235,"lng":34.2552,"pop":2375},{"name":"Новопетрівське","lat":47.2127,"lng":31.8057,"pop":2369},{"name":"Янтарне","lat":45.4347,"lng":34.2213,"pop":2368},{"name":"Остриця","lat":48.2833,"lng":26.05,"pop":2368},{"name":"Dashava","lat":49.2648,"lng":24.0169,"pop":2366},{"name":"Чорнівка","lat":48.4175,"lng":26.0122,"pop":2364},{"name":"Золотий Потік","lat":48.9067,"lng":25.3419,"pop":2363},{"name":"Zhovtneve","lat":49.644,"lng":34.1332,"pop":2363},{"name":"Шаровечка","lat":49.4173,"lng":26.9202,"pop":2359},{"name":"Коболчин","lat":48.5016,"lng":27.3686,"pop":2355},{"name":"Нижня Дуванка","lat":49.5835,"lng":38.1682,"pop":2353},{"name":"Сатанів","lat":49.2548,"lng":26.2542,"pop":2352},{"name":"Любар","lat":49.9232,"lng":27.7511,"pop":2351},{"name":"Першотравневе","lat":51.3931,"lng":28.8711,"pop":2350},{"name":"Mykhaylivka","lat":48.4976,"lng":38.9004,"pop":2350},{"name":"Фанчиково","lat":48.1137,"lng":22.9445,"pop":2350},{"name":"Sad","lat":50.8805,"lng":34.7141,"pop":2348},{"name":"Nyzhnye","lat":48.7759,"lng":38.622,"pop":2346},{"name":"Вишневе","lat":48.4369,"lng":33.9121,"pop":2340},{"name":"Yelyzavetivka","lat":48.6187,"lng":34.6478,"pop":2339},{"name":"Косонь","lat":48.2541,"lng":22.4585,"pop":2338},{"name":"Voznesens’ke","lat":49.7557,"lng":32.1566,"pop":2338},{"name":"Слобідка","lat":47.8837,"lng":29.344,"pop":2336},{"name":"Малехів","lat":49.8833,"lng":24.0667,"pop":2336},{"name":"Білолісся","lat":45.8921,"lng":29.6989,"pop":2335},{"name":"Ізобільне","lat":44.7028,"lng":34.3536,"pop":2333},{"name":"Верхньосадове","lat":44.6893,"lng":33.7021,"pop":2331},{"name":"Іванівка","lat":47.4778,"lng":34.76,"pop":2329},{"name":"Drachyntsi","lat":48.3165,"lng":25.7006,"pop":2324},{"name":"Zalom","lat":48.2528,"lng":23.3233,"pop":2323},{"name":"Velyki Krynky","lat":49.4567,"lng":33.4855,"pop":2319},{"name":"Троїцьке","lat":47.6394,"lng":30.2903,"pop":2314},{"name":"Vyderta","lat":51.733,"lng":25.0218,"pop":2313},{"name":"Подвір'ївка","lat":48.3197,"lng":26.7861,"pop":2310},{"name":"Oleshyn","lat":49.4706,"lng":26.938,"pop":2309},{"name":"Нова Дмитрівка","lat":49.691,"lng":32.0096,"pop":2305},{"name":"Novyy Korets’","lat":50.6148,"lng":27.1416,"pop":2303},{"name":"Калинівка","lat":45.3166,"lng":35.7464,"pop":2302},{"name":"Vydrychka","lat":48.054,"lng":24.3131,"pop":2300},{"name":"Віта-Литовська","lat":50.3263,"lng":30.5508,"pop":2300},{"name":"Hrodivka","lat":48.262,"lng":37.3812,"pop":2299},{"name":"Малий Маяк","lat":44.6136,"lng":34.3647,"pop":2298},{"name":"Perebykivtsi","lat":48.587,"lng":26.1382,"pop":2292},{"name":"Butenky","lat":49.2336,"lng":34.1094,"pop":2292},{"name":"Хотінь","lat":51.0811,"lng":34.7709,"pop":2290},{"name":"Зарічово","lat":48.7704,"lng":22.5197,"pop":2283},{"name":"Вигода","lat":48.9315,"lng":23.9089,"pop":2283},{"name":"Lyutizh","lat":50.6835,"lng":30.3932,"pop":2282},{"name":"Сасово","lat":48.092,"lng":23.0747,"pop":2281},{"name":"Oleksandrivka","lat":48.1345,"lng":23.5095,"pop":2279},{"name":"Новоборисівка","lat":47.103,"lng":29.9922,"pop":2277},{"name":"Грушівка","lat":45.0228,"lng":34.973,"pop":2269},{"name":"Чомонин","lat":48.4019,"lng":22.4608,"pop":2265},{"name":"Йорданешти","lat":48.1049,"lng":25.8099,"pop":2263},{"name":"Фрунзе","lat":46.2644,"lng":34.8637,"pop":2263},{"name":"Східниця","lat":49.2245,"lng":23.3519,"pop":2259},{"name":"Матроска","lat":45.3421,"lng":28.7811,"pop":2259},{"name":"Кленовий","lat":48.1193,"lng":39.4588,"pop":2259},{"name":"Верхні Ворота","lat":48.7463,"lng":23.1432,"pop":2258},{"name":"Нікіта","lat":44.5134,"lng":34.2352,"pop":2257},{"name":"Дубки","lat":44.9358,"lng":34.0236,"pop":2256},{"name":"Тіньки","lat":49.1887,"lng":32.6262,"pop":2255},{"name":"Нововасилівка","lat":46.8256,"lng":35.756,"pop":2253},{"name":"Rososh","lat":48.4969,"lng":23.1443,"pop":2250},{"name":"Первомайське","lat":45.1121,"lng":34.0648,"pop":2247},{"name":"Кирнички","lat":45.7054,"lng":29.0691,"pop":2245},{"name":"Domantove","lat":49.6734,"lng":31.914,"pop":2245},{"name":"Жнятино","lat":48.3537,"lng":22.5942,"pop":2243},{"name":"Zavorychi","lat":50.7059,"lng":31.1412,"pop":2241},{"name":"Кароліно-Бугаз","lat":46.1499,"lng":30.5412,"pop":2241},{"name":"Михайлівка","lat":45.5284,"lng":34.6406,"pop":2241},{"name":"Нижні Ворота","lat":48.771,"lng":23.0978,"pop":2240},{"name":"Малинці","lat":48.4269,"lng":26.226,"pop":2240},{"name":"Mala Burimka","lat":49.6487,"lng":32.5977,"pop":2239},{"name":"Черленівка","lat":48.2928,"lng":26.4026,"pop":2236},{"name":"Топчино","lat":48.0407,"lng":23.8254,"pop":2235},{"name":"Холмівка","lat":44.6583,"lng":33.7546,"pop":2234},{"name":"Чорнотисів","lat":48.077,"lng":23.054,"pop":2232},{"name":"Takhtaulove","lat":49.6612,"lng":34.5342,"pop":2231},{"name":"Steblivka","lat":48.0902,"lng":23.4239,"pop":2231},{"name":"Pisky","lat":50.3727,"lng":33.4546,"pop":2230},{"name":"Бобовище","lat":48.529,"lng":22.6725,"pop":2227},{"name":"Старі Трояни","lat":45.6726,"lng":29.1787,"pop":2225},{"name":"Mala Pereshchepyna","lat":49.3881,"lng":34.5801,"pop":2225},{"name":"Ситківці","lat":48.9093,"lng":29.1987,"pop":2223},{"name":"Завіт-Ленінський","lat":45.8626,"lng":34.3916,"pop":2222},{"name":"Маслове","lat":45.792,"lng":34.363,"pop":2222},{"name":"Trosnyk","lat":48.0953,"lng":22.9485,"pop":2222},{"name":"Lomachyntsi","lat":48.5843,"lng":27.3801,"pop":2217},{"name":"Головківка","lat":48.5762,"lng":33.0712,"pop":2217},{"name":"Бобове","lat":48.0717,"lng":22.8958,"pop":2216},{"name":"Parafiyivka","lat":50.8784,"lng":32.6485,"pop":2212},{"name":"Припруття","lat":48.2552,"lng":26.1678,"pop":2206},{"name":"Скельки","lat":47.44,"lng":35.1242,"pop":2205},{"name":"Успенівка","lat":46.185,"lng":29.8639,"pop":2203},{"name":"Stayky","lat":50.0782,"lng":30.9038,"pop":2203},{"name":"Yasna Polyana","lat":48.7444,"lng":37.5277,"pop":2200},{"name":"Стила","lat":47.6965,"lng":37.8456,"pop":2199},{"name":"Metalist","lat":48.6222,"lng":39.2823,"pop":2197},{"name":"Галицинове","lat":46.8004,"lng":31.9513,"pop":2196},{"name":"Нова Галещина","lat":49.1705,"lng":33.7561,"pop":2195},{"name":"Юр’ївка","lat":48.7432,"lng":36.0169,"pop":2193},{"name":"Великі Межирічі","lat":50.6544,"lng":26.8658,"pop":2192},{"name":"Висунськ","lat":47.261,"lng":32.8232,"pop":2191},{"name":"Белз","lat":50.3826,"lng":24.0079,"pop":2191},{"name":"Комиш-Зоря","lat":47.3307,"lng":36.6957,"pop":2188},{"name":"Onokivtsi","lat":48.657,"lng":22.3418,"pop":2187},{"name":"Бабанка","lat":48.7103,"lng":30.4398,"pop":2187},{"name":"Возсіятське","lat":47.6605,"lng":32.1128,"pop":2185},{"name":"Славгород","lat":48.0995,"lng":35.5172,"pop":2178},{"name":"Молочне","lat":45.1996,"lng":33.2223,"pop":2174},{"name":"Трудове","lat":44.9913,"lng":34.2031,"pop":2173},