[
  {"name":"Київ","lat":50.4501,"lng":30.5234,"pop":2900},
  {"name":"Харків","lat":49.9935,"lng":36.2304,"pop":1430},
  {"name":"Одеса","lat":46.4825,"lng":30.7233,"pop":1010},
  {"name":"Дніпро","lat":48.4647,"lng":35.0462,"pop":970},
  {"name":"Донецьк","lat":48.0159,"lng":37.8028,"pop":900},
  {"name":"Запоріжжя","lat":47.8388,"lng":35.1396,"pop":750},
  {"name":"Львів","lat":49.8397,"lng":24.0297,"pop":720},
  {"name":"Кривий Ріг","lat":47.9105,"lng":33.3918,"pop":610},
  {"name":"Миколаїв","lat":46.9750,"lng":31.9946,"pop":490},
  {"name":"Маріуполь","lat":47.0954,"lng":37.5432,"pop":450},
  {"name":"Луганськ","lat":48.5740,"lng":39.3078,"pop":420},
  {"name":"Вінниця","lat":49.2331,"lng":28.4682,"pop":370},
  {"name":"Херсон","lat":46.6354,"lng":32.6169,"pop":280},
  {"name":"Полтава","lat":49.5883,"lng":34.5514,"pop":285},
  {"name":"Чернігів","lat":51.4982,"lng":31.2893,"pop":280},
  {"name":"Черкаси","lat":49.4444,"lng":32.0598,"pop":275},
  {"name":"Суми","lat":50.9077,"lng":34.7981,"pop":262},
  {"name":"Житомир","lat":50.2547,"lng":28.6587,"pop":260},
  {"name":"Рівне","lat":50.6197,"lng":26.2516,"pop":248},
  {"name":"Івано-Франківськ","lat":48.9226,"lng":24.7111,"pop":236},
  {"name":"Хмельницький","lat":49.4229,"lng":26.9872,"pop":273},
  {"name":"Чернівці","lat":48.2915,"lng":25.9352,"pop":265},
  {"name":"Тернопіль","lat":49.5535,"lng":25.5948,"pop":220},
  {"name":"Ужгород","lat":48.6208,"lng":22.2879,"pop":115},
  {"name":"Луцьк","lat":50.7472,"lng":25.3254,"pop":215},
  {"name":"Кропивницький","lat":48.5079,"lng":32.2623,"pop":220},
  {"name":"Бердянськ","lat":46.7537,"lng":36.7939,"pop":110},
  {"name":"Мелітополь","lat":46.8483,"lng":35.3636,"pop":155},
  {"name":"Нікополь","lat":47.5748,"lng":34.3967,"pop":110},
  {"name":"Кам'янське","lat":48.5005,"lng":34.6217,"pop":230},
  {"name":"Павлоград","lat":48.5272,"lng":35.8763,"pop":105},
  {"name":"Кременчук","lat":49.0888,"lng":33.4120,"pop":215},
  {"name":"Олександрія","lat":48.6694,"lng":33.1076,"pop":75},
  {"name":"Умань","lat":48.7525,"lng":30.2181,"pop":85},
  {"name":"Біла Церква","lat":49.7993,"lng":30.1171,"pop":205},
  {"name":"Бровари","lat":50.5108,"lng":30.7895,"pop":108},
  {"name":"Борисполь","lat":50.3531,"lng":30.9515,"pop":55},
  {"name":"Ірпінь","lat":50.5214,"lng":30.2562,"pop":65},
  {"name":"Буча","lat":50.5507,"lng":30.2336,"pop":37},
  {"name":"Фастів","lat":50.0810,"lng":29.9108,"pop":45},
  {"name":"Васильків","lat":50.1769,"lng":30.3275,"pop":36},
  {"name":"Обухів","lat":50.1094,"lng":30.6357,"pop":36},
  {"name":"Вишгород","lat":50.5903,"lng":30.4733,"pop":27},
  {"name":"Переяслав","lat":50.0627,"lng":31.4618,"pop":28},
  {"name":"Макіївка","lat":48.0489,"lng":37.9625,"pop":340},
  {"name":"Горлівка","lat":48.3159,"lng":38.0523,"pop":250},
  {"name":"Краматорськ","lat":48.7276,"lng":37.5552,"pop":155},
  {"name":"Слов'янськ","lat":48.8596,"lng":37.6183,"pop":110},
  {"name":"Лисичанськ","lat":48.9067,"lng":38.4376,"pop":95},
  {"name":"Сєвєродонецьк","lat":48.9482,"lng":38.4865,"pop":100},
  {"name":"Рубіжне","lat":49.0237,"lng":38.3694,"pop":56},
  {"name":"Алчевськ","lat":48.4748,"lng":38.8202,"pop":105},
  {"name":"Стаханов","lat":48.5621,"lng":38.6505,"pop":72},
  {"name":"Енергодар","lat":47.5002,"lng":34.6574,"pop":54},
  {"name":"Токмак","lat":47.2556,"lng":35.7092,"pop":32},
  {"name":"Генічеськ","lat":46.1693,"lng":34.8278,"pop":22},
  {"name":"Нова Каховка","lat":46.7526,"lng":33.3711,"pop":46},
  {"name":"Каховка","lat":46.8198,"lng":33.4886,"pop":34},
  {"name":"Скадовськ","lat":46.1143,"lng":32.9024,"pop":22},
  {"name":"Берислав","lat":46.8395,"lng":33.4222,"pop":13},
  {"name":"Євпаторія","lat":45.2003,"lng":33.3670,"pop":105},
  {"name":"Севастополь","lat":44.6166,"lng":33.5254,"pop":400},
  {"name":"Сімферополь","lat":44.9521,"lng":34.1024,"pop":340},
  {"name":"Ялта","lat":44.4952,"lng":34.1663,"pop":77},
  {"name":"Керч","lat":45.3531,"lng":36.4706,"pop":147},
  {"name":"Феодосія","lat":45.0328,"lng":35.3825,"pop":69},
  {"name":"Джанкой","lat":45.7108,"lng":34.3939,"pop":37},
  {"name":"Бахчисарай","lat":44.7537,"lng":33.8746,"pop":27},
  {"name":"Коростень","lat":50.9546,"lng":28.6584,"pop":63},
  {"name":"Бердичів","lat":49.8997,"lng":28.5952,"pop":74},
  {"name":"Новоград-Волинський","lat":50.5960,"lng":27.6167,"pop":56},
  {"name":"Малин","lat":50.7729,"lng":29.2278,"pop":25},
  {"name":"Шепетівка","lat":50.1845,"lng":27.0596,"pop":42},
  {"name":"Нетішин","lat":50.3410,"lng":26.6393,"pop":37},
  {"name":"Славута","lat":50.3050,"lng":27.0190,"pop":37},
  {"name":"Здолбунів","lat":50.5181,"lng":26.2500,"pop":22},
  {"name":"Костопіль","lat":50.8810,"lng":26.4449,"pop":31},
  {"name":"Сарни","lat":51.3400,"lng":26.6179,"pop":28},
  {"name":"Ковель","lat":51.2116,"lng":24.7083,"pop":68},
  {"name":"Нововолинськ","lat":50.7212,"lng":24.1603,"pop":55},
  {"name":"Червоноград","lat":50.3882,"lng":24.2274,"pop":65},
  {"name":"Стрий","lat":49.2623,"lng":23.8509,"pop":56},
  {"name":"Дрогобич","lat":49.3497,"lng":23.5060,"pop":76},
  {"name":"Трускавець","lat":49.2824,"lng":23.5083,"pop":30},
  {"name":"Борислав","lat":49.2838,"lng":23.4298,"pop":35},
  {"name":"Самбір","lat":49.5195,"lng":23.1964,"pop":35},
  {"name":"Мукачево","lat":48.4411,"lng":22.7132,"pop":85},
  {"name":"Берегово","lat":48.2040,"lng":22.6433,"pop":24},
  {"name":"Хуст","lat":48.1782,"lng":23.2924,"pop":31},
  {"name":"Коломия","lat":48.5271,"lng":25.0420,"pop":62},
  {"name":"Калуш","lat":49.0111,"lng":24.3597,"pop":65},
  {"name":"Надвірна","lat":48.6327,"lng":24.5657,"pop":22},
  {"name":"Снятин","lat":48.4484,"lng":25.5607,"pop":13},
  {"name":"Кам'янець-Подільський","lat":48.6724,"lng":26.5773,"pop":100},
  {"name":"Проскурів","lat":49.4229,"lng":26.9872,"pop":273},
  {"name":"Кузнецовськ","lat":51.3660,"lng":25.8473,"pop":37},
  {"name":"Вараш","lat":51.3660,"lng":25.8473,"pop":37},
  {"name":"Нікополь","lat":47.5748,"lng":34.3967,"pop":110},
  {"name":"Жовті Води","lat":48.3565,"lng":33.4998,"pop":45},
  {"name":"Вільногірськ","lat":48.2899,"lng":34.0107,"pop":23},
  {"name":"Першотравенськ","lat":48.3586,"lng":36.4053,"pop":28},
  {"name":"Лозова","lat":48.8880,"lng":36.3175,"pop":55},
  {"name":"Балаклія","lat":49.4600,"lng":36.8438,"pop":28},
  {"name":"Ізюм","lat":49.2089,"lng":37.2783,"pop":46},
  {"name":"Куп'янськ","lat":49.7128,"lng":37.6086,"pop":27},
  {"name":"Богодухів","lat":50.1597,"lng":35.5385,"pop":15},
  {"name":"Валки","lat":49.8342,"lng":35.6178,"pop":8},
  {"name":"Красноград","lat":49.3715,"lng":35.4489,"pop":23},
  {"name":"Первомайський","lat":49.3983,"lng":36.2328,"pop":23},
  {"name":"Чугуїв","lat":49.8374,"lng":36.6860,"pop":32},
  {"name":"Охтирка","lat":50.3064,"lng":34.9058,"pop":49},
  {"name":"Ромни","lat":50.7471,"lng":33.4700,"pop":35},
  {"name":"Конотоп","lat":51.2379,"lng":33.2056,"pop":87},
  {"name":"Шостка","lat":51.8673,"lng":33.4820,"pop":71},
  {"name":"Глухів","lat":51.6798,"lng":33.9090,"pop":33},
  {"name":"Ніжин","lat":51.0497,"lng":31.8938,"pop":68},
  {"name":"Прилуки","lat":50.5942,"lng":32.3868,"pop":55},
  {"name":"Чернігів","lat":51.4982,"lng":31.2893,"pop":280},
  {"name":"Золотоноша","lat":49.6676,"lng":32.0383,"pop":26},
  {"name":"Сміла","lat":49.2179,"lng":31.8622,"pop":60},
  {"name":"Канів","lat":49.7491,"lng":31.4576,"pop":26},
  {"name":"Корсунь-Шевченківський","lat":49.4242,"lng":31.2617,"pop":19},
  {"name":"Звенигородка","lat":49.0762,"lng":30.9732,"pop":21},
  {"name":"Монастирище","lat":49.0803,"lng":29.7939,"pop":15},
  {"name":"Тальне","lat":48.8893,"lng":30.6975,"pop":14},
  {"name":"Миронівка","lat":49.6574,"lng":31.0051,"pop":15},
  {"name":"Кагарлик","lat":49.8623,"lng":30.8374,"pop":16},
  {"name":"Ставище","lat":49.3903,"lng":30.1781,"pop":5},
  {"name":"Тараща","lat":49.5626,"lng":30.5121,"pop":13},
  {"name":"Рокитне","lat":49.6783,"lng":30.4917,"pop":10},
  {"name":"Богуслав","lat":49.5344,"lng":30.8890,"pop":15},
  {"name":"Яготин","lat":50.2633,"lng":31.7740,"pop":23},
  {"name":"Березань","lat":50.3337,"lng":31.4308,"pop":14},
  {"name":"Стебнів","lat":49.3070,"lng":23.6120,"pop":8},
  {"name":"Дубно","lat":50.4128,"lng":25.7404,"pop":38},
  {"name":"Острог","lat":50.3306,"lng":26.5042,"pop":16},
  {"name":"Кузнецовськ","lat":51.3660,"lng":25.8473,"pop":37},
  {"name":"Олевськ","lat":51.2210,"lng":27.6531,"pop":13},
  {"name":"Овруч","lat":51.3212,"lng":28.8052,"pop":16},
  {"name":"Малин","lat":50.7729,"lng":29.2278,"pop":25},
  {"name":"Радомишль","lat":50.4944,"lng":29.2304,"pop":14},
  {"name":"Бар","lat":49.0849,"lng":27.6905,"pop":16},
  {"name":"Могилів-Подільський","lat":48.4477,"lng":27.7967,"pop":32},
  {"name":"Жмеринка","lat":49.0434,"lng":28.1145,"pop":35},
  {"name":"Козятин","lat":49.7085,"lng":28.8424,"pop":25},
  {"name":"Хмільник","lat":49.5582,"lng":27.9542,"pop":27},
  {"name":"Немирів","lat":48.9747,"lng":28.8364,"pop":12},
  {"name":"Тульчин","lat":48.6762,"lng":28.8524,"pop":15},
  {"name":"Гайсин","lat":48.8102,"lng":29.3872,"pop":26},
  {"name":"Ладижин","lat":48.6752,"lng":29.2425,"pop":22},
  {"name":"Погребище","lat":49.4807,"lng":29.2616,"pop":8},
  {"name":"Іллінці","lat":49.1048,"lng":29.2075,"pop":12},
  {"name":"Крижопіль","lat":48.3749,"lng":28.8714,"pop":9},
  {"name":"Яришів","lat":48.6010,"lng":28.2280,"pop":5},
  {"name":"Тетіїв","lat":49.3694,"lng":29.6858,"pop":13},
  {"name":"Липовець","lat":49.2109,"lng":29.0531,"pop":12},
  {"name":"Бершадь","lat":48.3668,"lng":29.5229,"pop":16},
  {"name":"Тиврів","lat":49.0026,"lng":28.5201,"pop":6},
  {"name":"Карлівка","lat":49.4602,"lng":35.1398,"pop":16},
  {"name":"Гребінка","lat":50.1175,"lng":32.4399,"pop":14},
  {"name":"Лубни","lat":50.0165,"lng":32.9923,"pop":47},
  {"name":"Миргород","lat":49.9663,"lng":33.6096,"pop":37},
  {"name":"Гадяч","lat":50.3709,"lng":34.0052,"pop":25},
  {"name":"Зіньків","lat":50.2010,"lng":34.3735,"pop":14},
  {"name":"Диканька","lat":49.7673,"lng":34.3940,"pop":8},
  {"name":"Опішня","lat":49.9390,"lng":34.5931,"pop":6},
  {"name":"Кобеляки","lat":49.1434,"lng":34.1965,"pop":13},
  {"name":"Горішні Плавні","lat":49.0146,"lng":33.6596,"pop":53},
  {"name":"Хорол","lat":49.7900,"lng":33.2748,"pop":16},
  {"name":"Пирятин","lat":50.2444,"lng":32.5140,"pop":17},
  {"name":"Лохвиця","lat":50.3601,"lng":33.2555,"pop":13},
  {"name":"Глобине","lat":49.3793,"lng":33.2776,"pop":17},
  {"name":"Комсомольськ","lat":49.0146,"lng":33.6596,"pop":53},
  {"name":"Великі Луки","lat":49.0146,"lng":33.6596,"pop":10},
  {"name":"Хорошів","lat":50.4561,"lng":28.2789,"pop":12},
  {"name":"Бердичів","lat":49.8997,"lng":28.5952,"pop":74},
  {"name":"Звягель","lat":50.5960,"lng":27.6167,"pop":56},
  {"name":"Нововолинськ","lat":50.7212,"lng":24.1603,"pop":55},
  {"name":"Старокостянтинів","lat":49.7479,"lng":27.2174,"pop":31},
  {"name":"Полонне","lat":50.1823,"lng":27.5137,"pop":21},
  {"name":"Ізяслав","lat":50.1264,"lng":26.8289,"pop":13},
  {"name":"Волочиськ","lat":49.5293,"lng":26.1701,"pop":17},
  {"name":"Красилів","lat":49.6638,"lng":26.9706,"pop":22},
  {"name":"Деражня","lat":49.3932,"lng":27.1819,"pop":10},
  {"name":"Дунаївці","lat":48.8739,"lng":26.8483,"pop":12},
  {"name":"Чорткiв","lat":49.0166,"lng":25.7977,"pop":28},
  {"name":"Заліщики","lat":48.6479,"lng":25.7277,"pop":12},
  {"name":"Бучач","lat":49.0655,"lng":25.3783,"pop":13},
  {"name":"Монастириська","lat":49.0916,"lng":25.1769,"pop":6},
  {"name":"Теребовля","lat":49.2967,"lng":25.6973,"pop":14},
  {"name":"Зборів","lat":49.6666,"lng":25.1448,"pop":9},
  {"name":"Козова","lat":49.4322,"lng":25.1523,"pop":6},
  {"name":"Підгайці","lat":49.2599,"lng":25.1680,"pop":5},
  {"name":"Бережани","lat":49.4444,"lng":24.9454,"pop":18},
  {"name":"Золочів","lat":49.8072,"lng":24.9005,"pop":24},
  {"name":"Буськ","lat":49.9725,"lng":24.6137,"pop":9},
  {"name":"Броди","lat":50.0832,"lng":25.1482,"pop":23},
  {"name":"Кам'янка-Бузька","lat":50.1046,"lng":24.3516,"pop":12},
  {"name":"Жовква","lat":50.0619,"lng":23.9781,"pop":14},
  {"name":"Яворів","lat":49.9396,"lng":23.3905,"pop":14},
  {"name":"Мостиська","lat":49.7873,"lng":23.1573,"pop":8},
  {"name":"Городок","lat":49.7917,"lng":23.6455,"pop":13},
  {"name":"Рудки","lat":49.7015,"lng":23.4917,"pop":5},
  {"name":"Судова Вишня","lat":49.7879,"lng":23.3824,"pop":7},
  {"name":"Перемишляни","lat":49.6573,"lng":24.1042,"pop":6},
  {"name":"Пустомити","lat":49.7178,"lng":23.9247,"pop":6},
  {"name":"Миколаїв","lat":49.5282,"lng":23.9848,"pop":14},
  {"name":"Жидачів","lat":49.3855,"lng":24.1390,"pop":11},
  {"name":"Моршин","lat":49.1608,"lng":23.8724,"pop":6},
  {"name":"Стебник","lat":49.2952,"lng":23.5621,"pop":21},
  {"name":"Ратне","lat":51.6577,"lng":24.5486,"pop":8},
  {"name":"Любомль","lat":51.2298,"lng":24.0391,"pop":11},
  {"name":"Камінь-Каширський","lat":51.6289,"lng":24.9694,"pop":11},
  {"name":"Маневичі","lat":51.3031,"lng":25.5329,"pop":9},
  {"name":"Ківерці","lat":50.7001,"lng":25.4651,"pop":17},
  {"name":"Горохів","lat":50.5032,"lng":24.7783,"pop":12},
  {"name":"Рожище","lat":50.9145,"lng":25.2640,"pop":16},
  {"name":"Локачі","lat":50.7273,"lng":24.6453,"pop":5},
  {"name":"Іваничі","lat":50.6620,"lng":24.2009,"pop":5},
  {"name":"Турійськ","lat":51.0340,"lng":24.5353,"pop":5},
  {"name":"Лубни","lat":50.0165,"lng":32.9923,"pop":47},
  {"name":"Прилуки","lat":50.5942,"lng":32.3868,"pop":55},
  {"name":"Ніжин","lat":51.0497,"lng":31.8938,"pop":68},
  {"name":"Чернігів","lat":51.4982,"lng":31.2893,"pop":280},
  {"name":"Батурин","lat":51.3365,"lng":32.8768,"pop":3},
  {"name":"Остер","lat":50.9438,"lng":30.8744,"pop":8},
  {"name":"Бобровиця","lat":50.7405,"lng":31.3925,"pop":10},
  {"name":"Борзна","lat":51.2569,"lng":32.4193,"pop":9},
  {"name":"Носівка","lat":51.0162,"lng":31.5694,"pop":13},
  {"name":"Бахмач","lat":51.1800,"lng":32.8316,"pop":18},
  {"name":"Корюківка","lat":51.7699,"lng":32.2543,"pop":14},
  {"name":"Семенівка","lat":52.1781,"lng":32.5917,"pop":9},
  {"name":"Городня","lat":51.9200,"lng":31.5933,"pop":12},
  {"name":"Щорс","lat":51.8222,"lng":31.9436,"pop":9},
  {"name":"Ічня","lat":50.8581,"lng":32.4013,"pop":12},
  {"name":"Сосниця","lat":51.5343,"lng":32.4983,"pop":8},
  {"name":"Варва","lat":50.6752,"lng":32.7060,"pop":7},
  {"name":"Козелець","lat":51.1155,"lng":31.1316,"pop":8},
  {"name":"Вертіївка","lat":51.1360,"lng":31.6384,"pop":5},
  {"name":"Срібне","lat":50.5917,"lng":32.6819,"pop":5},
  {"name":"Талалаївка","lat":50.9019,"lng":33.2406,"pop":4}
]
